{
  "channels": [
    {
      "id": 2,
      "name": "space_tamnik",
      "subs": "조회수 확인 필요",
      "initial": "S",
      "color": "#2196F3",
      "youtubeChannelId": "channel_2",
      "url": "https://www.youtube.com/@space_tamnik"
    },
    {
      "id": 3,
      "name": "알밤yammkki",
      "subs": "조회수 확인 필요",
      "initial": "알",
      "color": "#4CAF50",
      "youtubeChannelId": "channel_3",
      "url": "https://www.youtube.com/@%EC%96%8C%EB%81%BCyammkki"
    },
    {
      "id": 4,
      "name": "가보자곰",
      "subs": "조회수 확인 필요",
      "initial": "곰",
      "color": "#FF9800",
      "youtubeChannelId": "channel_4",
      "url": "https://www.youtube.com/@%EA%B0%80%EB%B3%B4%EC%9E%90%EA%B3%B0",
      "lastFetchedAt": "2026-03-08T18:25:04.248Z",
      "addedAt": "2026-03-08T18:23:34.200Z"
    },
    {
      "id": 1007,
      "name": "힐링보이 Healingboy",
      "subs": "조회수 확인 필요",
      "initial": "힐",
      "color": "#FF9800",
      "youtubeChannelId": "UCy8ZzxrIwxxKEcHzUyBDYPw",
      "url": "http://www.youtube.com/@Healingboy7",
      "lastFetchedAt": "2026-03-08T17:53:00.612Z",
      "addedAt": "2026-03-08T17:48:00.607Z"
    },
    {
      "id": 1008,
      "name": "푸담 Fudam",
      "subs": "조회수 확인 필요",
      "initial": "푸",
      "color": "#9C27B0",
      "youtubeChannelId": "channel_1008",
      "url": "https://www.youtube.com/@fu_dam",
      "addedAt": "2026-03-08T17:53:20.469Z",
      "lastFetchedAt": "2026-03-08T18:19:01.940Z"
    },
    {
      "id": 1009,
      "name": "윤호찌",
      "subs": "조회수 확인 필요",
      "initial": "윤",
      "color": "#00BCD4",
      "youtubeChannelId": "channel_1009",
      "url": "https://www.youtube.com/@%EC%9C%A4%ED%98%B8%EC%B0%8C",
      "addedAt": "2026-03-08T18:31:36.216Z"
    }
  ],
  "shorts": [
    {
      "id": 51,
      "title": "What Happens When You Order Raw Chocolate Castella in Fukuoka",
      "views": "조회수 확인 필요",
      "growthRate": 0.8,
      "color": "#2196F3",
      "youtubeVideoId": "MjImzfb9SA4",
      "lat": 33.311437,
      "lng": 130.518123,
      "place": "東町",
      "placeName": "361-24 Higashimachi, Kurume, Fukuoka, Japan",
      "address": "東町, 久留米市, 福岡県, 830-0038, 日本",
      "channelId": 2,
      "locationText": "361-24 Higashimachi, Kurume, Fukuoka, Japan"
    },
    {
      "id": 52,
      "title": "What Happens When You Order Tokyo's #1 Tonkatsu",
      "views": "조회수 확인 필요",
      "growthRate": 0.8,
      "color": "#2196F3",
      "youtubeVideoId": "fivSo_d3x_c",
      "lat": 35.6949194,
      "lng": 139.7938126,
      "place": "tonkatsu",
      "placeName": "tonkatsu restaurant, Japan",
      "address": "tonkatsu, 横綱横丁, 両国三丁目, 両国, 墨田区, 東京都, 130-0026, 日本",
      "channelId": 2,
      "locationText": "4 Chome-33-9, Naritahigashi, Suginami City, Tokyo, Japan"
    },
    {
      "id": 53,
      "title": "What Happens When You Order Strawberry Crème Brûlée French Toast in Seoul",
      "views": "조회수 확인 필요",
      "growthRate": 0.8,
      "color": "#2196F3",
      "youtubeVideoId": "pq1ZFjwSt5M",
      "lat": 37.5500124,
      "lng": 126.9085304,
      "place": "포은로",
      "placeName": "71-12 Poeun-ro, Mapo-gu, Seoul",
      "address": "포은로, 합정동, 마포구, 서울특별시, 04026, 대한민국",
      "channelId": 2,
      "locationText": "71-12 Poeun-ro, Mapo-gu, Seoul"
    },
    {
      "id": 54,
      "title": "What Happens When You Order Matcha Butter Pancakes in Tokyo",
      "views": "조회수 확인 필요",
      "growthRate": 0.8,
      "color": "#2196F3",
      "youtubeVideoId": "cqw5hbhyGsQ",
      "lat": 35.6768601,
      "lng": 139.7638947,
      "place": "東京都",
      "placeName": "Tokyo",
      "address": "東京都, 日本",
      "channelId": 2,
      "locationText": "Miyoshi 1 Chome-5-4, Koto City, Tokyo"
    },
    {
      "id": 55,
      "title": "What Happens When You Order Golden Eye Bream Ramen in Tokyo",
      "views": "조회수 확인 필요",
      "growthRate": 0.8,
      "color": "#2196F3",
      "youtubeVideoId": "RZooNPf1Rng",
      "lat": 35.6768601,
      "lng": 139.7638947,
      "place": "東京都",
      "placeName": "Tokyo",
      "address": "東京都, 日本",
      "channelId": 2,
      "locationText": "Tokyo, Minato City, Akasaka, 3 Chome−14−2 ドルミ赤坂 201"
    },
    {
      "id": 56,
      "title": "What Happens When You Order Crab Senbei in Thailand",
      "views": "조회수 확인 필요",
      "growthRate": 0.8,
      "color": "#2196F3",
      "youtubeVideoId": "DxBLQTH1Gyo",
      "lat": 14.8971921,
      "lng": 100.83273,
      "place": "ประเทศไทย",
      "placeName": "Thailand",
      "address": "ประเทศไทย",
      "channelId": 2,
      "locationText": "Bangsaen Fish Market, Khao Lam Rd, Saen Suk, เมือง Chon Buri, Thailand"
    },
    {
      "id": 57,
      "title": "Bangkok Michelin Ramen",
      "views": "조회수 확인 필요",
      "growthRate": 0.8,
      "color": "#2196F3",
      "youtubeVideoId": "TmN32X7O_-I",
      "lat": 13.7563,
      "lng": 100.5018,
      "place": "방콕",
      "placeName": "Bangkok Michelin Ramen",
      "address": "Bangkok, Thailand",
      "channelId": 2,
      "locationText": "2 Attha Kawi 1 Alley, Khlong Tan, Khlong Toei, Bangkok, Thailand"
    },
    {
      "id": 58,
      "title": "What Happens When You Order a Matcha Latte in Tokyo",
      "views": "조회수 확인 필요",
      "growthRate": 0.8,
      "color": "#2196F3",
      "youtubeVideoId": "T_1Kyxxti1k",
      "lat": 35.6768601,
      "lng": 139.7638947,
      "place": "東京都",
      "placeName": "Tokyo",
      "address": "東京都, 日本",
      "channelId": 2,
      "locationText": "New Ginza Building 10th Floor, 7 Chome-3-13, Ginza, Tokyo"
    },
    {
      "id": 59,
      "title": "What Happens When You Order a -196°C Latte in Bangkok",
      "views": "조회수 확인 필요",
      "growthRate": 0.8,
      "color": "#2196F3",
      "youtubeVideoId": "-2jBGvE9fWo",
      "lat": 13.7388905,
      "lng": 100.506035,
      "place": "ถนนทรงวาด",
      "placeName": "820 Song Wat Rd, Chakkrawat, Samphanthawong, Bangkok, Thailand",
      "address": "ถนนทรงวาด, สำเพ็ง, แขวงจักรวรรดิ, เขตสัมพันธวงศ์, กรุงเทพมหานคร, 10100, ประเทศไทย",
      "channelId": 2,
      "locationText": "820 Song Wat Rd, Chakkrawat, Samphanthawong, Bangkok, Thailand"
    },
    {
      "id": 60,
      "title": "What Happens When You Order Dubai's Chewy Bungeoppang in Suwon",
      "views": "조회수 확인 필요",
      "growthRate": 0.8,
      "color": "#2196F3",
      "youtubeVideoId": "rTHuQ6eJy94",
      "lat": 37.2633325,
      "lng": 127.0287472,
      "place": "수원시",
      "placeName": "Suwon",
      "address": "수원시, 경기도, 대한민국",
      "channelId": 2,
      "locationText": "1st floor, 873 Jeongjo-ro, Paldal-gu, Suwon-si, Gyeonggi-do"
    },
    {
      "id": 61,
      "title": "도쿄에서 스키야키를 주문하면 생기는 일",
      "views": "조회수 확인 필요",
      "growthRate": 0.8,
      "color": "#2196F3",
      "youtubeVideoId": "vbUezHDWtbI",
      "lat": 35.6762,
      "lng": 139.6503,
      "place": "도쿄",
      "placeName": "Tokyo",
      "address": "Tokyo, Japan",
      "channelId": 2,
      "locationText": "Tokyo, Chuo City, Ginza, 6 Chome-13-16 1F"
    },
    {
      "id": 62,
      "title": "도쿄에서 신의 우설을 주문하면 생기는 일",
      "views": "조회수 확인 필요",
      "growthRate": 0.8,
      "color": "#2196F3",
      "youtubeVideoId": "kvaNsVoXP7w",
      "lat": 35.6768601,
      "lng": 139.7638947,
      "place": "東京都",
      "placeName": "Tokyo",
      "address": "東京都, 日本",
      "channelId": 2,
      "locationText": "Tokyo, Chuo City, Ginza, 6 Chome−6−5 HULIC & New GINZA NAMIKI ６ ４F B"
    },
    {
      "id": 63,
      "title": "What Happens When You Order Matcha in Thailand",
      "views": "조회수 확인 필요",
      "growthRate": 0.8,
      "color": "#2196F3",
      "youtubeVideoId": "XuNNZ_ntJA0",
      "lat": 14.8971921,
      "lng": 100.83273,
      "place": "ประเทศไทย",
      "placeName": "Thailand",
      "address": "ประเทศไทย",
      "channelId": 2,
      "locationText": "Si Yaek Maha Nak, Dusit District, Bangkok Metropolitan Area 10300, Thailand"
    },
    {
      "id": 64,
      "title": "What Happens When You Visit a Large Dog Cafe in Fukuoka",
      "views": "조회수 확인 필요",
      "growthRate": 0.8,
      "color": "#2196F3",
      "youtubeVideoId": "JWg1IfIZysk",
      "lat": 33.6251241,
      "lng": 130.6180016,
      "place": "福岡県",
      "placeName": "Fukuoka",
      "address": "福岡県, 日本",
      "channelId": 2,
      "locationText": "Japan, Fukuoka Hakata Ward Sanno 1-8-18 1 Chome-8-18"
    },
    {
      "id": 65,
      "title": "What Happens When You Order Matcha Pad Thai in Thailand",
      "views": "조회수 확인 필요",
      "growthRate": 0.8,
      "color": "#2196F3",
      "youtubeVideoId": "uAmQhAR0CXA",
      "lat": 14.8971921,
      "lng": 100.83273,
      "place": "ประเทศไทย",
      "placeName": "Thailand",
      "address": "ประเทศไทย",
      "channelId": 2,
      "locationText": "Mirt Market Donmueang 1 35, Bangkok, Thailand"
    },
    {
      "id": 66,
      "title": "What Happens When You Order a Mega Tuna Donburi in Tokyo",
      "views": "조회수 확인 필요",
      "growthRate": 0.8,
      "color": "#2196F3",
      "youtubeVideoId": "JudynWDUbaQ",
      "lat": 35.6783612,
      "lng": 139.6470183,
      "place": "和泉三丁目",
      "placeName": "Japan, Tokyo, Suginami, Izumi, 3 Chome-52-15",
      "address": "和泉三丁目, 和泉, 杉並区, 東京都, 日本",
      "channelId": 2,
      "locationText": "3 Chome-52-15, Izumi, Suginami, Tokyo"
    },
    {
      "id": 67,
      "title": "What Happens When You Order Tantanmen in Tokyo",
      "views": "조회수 확인 필요",
      "growthRate": 0.8,
      "color": "#2196F3",
      "youtubeVideoId": "8RJ-SrqekSY",
      "lat": 35.6768601,
      "lng": 139.7638947,
      "place": "東京都",
      "placeName": "Tokyo",
      "address": "東京都, 日本",
      "channelId": 2,
      "locationText": "Tokyo, Meguro City, Kamimeguro, 3−5−25 Under Nakameguro Railway Overpass"
    },
    {
      "id": 68,
      "title": "What Happens When You Order a Latte in Bangkok",
      "views": "조회수 확인 필요",
      "growthRate": 0.8,
      "color": "#2196F3",
      "youtubeVideoId": "LiWqGBpK7Nw",
      "lat": 13.7356071,
      "lng": 100.6410259,
      "place": "แขวงพัฒนาการ",
      "placeName": "Phatthanakan 32, Suan Luang, Bangkok, Thailand",
      "address": "แขวงพัฒนาการ, เขตสวนหลวง, กรุงเทพมหานคร, 10250, ประเทศไทย",
      "channelId": 2,
      "locationText": "Phatthanakan 32, Suan Luang, Bangkok, Thailand"
    },
    {
      "id": 69,
      "title": "What Happens When You Order a Tricolor Rice Bowl in Fukuoka",
      "views": "조회수 확인 필요",
      "growthRate": 0.8,
      "color": "#2196F3",
      "youtubeVideoId": "ok6phTn-ydw",
      "lat": 33.6251241,
      "lng": 130.6180016,
      "place": "福岡県",
      "placeName": "Fukuoka",
      "address": "福岡県, 日本",
      "channelId": 2,
      "locationText": "Japan, Fukuoka, Hakata Ward, Sumiyoshi, 1 Chome−2−82 B1"
    },
    {
      "id": 70,
      "title": "What Happens When You Order Udon in Tokyo",
      "views": "조회수 확인 필요",
      "growthRate": 0.8,
      "color": "#2196F3",
      "youtubeVideoId": "z1zlcLe9RMI",
      "lat": 35.6768601,
      "lng": 139.7638947,
      "place": "東京都",
      "placeName": "Tokyo",
      "address": "東京都, 日本",
      "channelId": 2,
      "locationText": "Tokyo, Chuo City, Nihonbashiningyocho, 2 Chome-15-17"
    },
    {
      "id": 71,
      "title": "What Happens When You Order Bread Crab in Thailand",
      "views": "조회수 확인 필요",
      "growthRate": 0.8,
      "color": "#2196F3",
      "youtubeVideoId": "TCSIkSEhw7k",
      "lat": 14.8971921,
      "lng": 100.83273,
      "place": "ประเทศไทย",
      "placeName": "Thailand",
      "address": "ประเทศไทย",
      "channelId": 2,
      "locationText": "99/8-9 Prachasuntorn soi 8, Ang Sila, Chon Buri District, Chon Buri, Thailand"
    },
    {
      "id": 72,
      "title": "What Happens When You Order Matcha Soufflé Pancakes in Fukuoka",
      "views": "조회수 확인 필요",
      "growthRate": 0.8,
      "color": "#2196F3",
      "youtubeVideoId": "j_Jfwc5pm1w",
      "lat": 33.6251241,
      "lng": 130.6180016,
      "place": "福岡県",
      "placeName": "Fukuoka",
      "address": "福岡県, 日本",
      "channelId": 2,
      "locationText": "Fukuoka, Kurume, Torimachi, 107−13 1F, Japan"
    },
    {
      "id": 73,
      "title": "What Happens When You Order Eggs Benedict in Fukuoka",
      "views": "조회수 확인 필요",
      "growthRate": 0.8,
      "color": "#2196F3",
      "youtubeVideoId": "6qEYu8ak1e8",
      "lat": 33.6251241,
      "lng": 130.6180016,
      "place": "福岡県",
      "placeName": "Fukuoka",
      "address": "福岡県, 日本",
      "channelId": 2,
      "locationText": "5 Chome-2-8, Watanabedori, Chuo Ward, Fukuoka, Japan"
    },
    {
      "id": 74,
      "title": "What Happens When You Order Lobster Ramen in Tokyo",
      "views": "조회수 확인 필요",
      "growthRate": 0.8,
      "color": "#2196F3",
      "youtubeVideoId": "56sKBAbu8vw",
      "lat": 35.6768601,
      "lng": 139.7638947,
      "place": "東京都",
      "placeName": "Tokyo",
      "address": "東京都, 日本",
      "channelId": 2,
      "locationText": "1F, 2 Chome-1-13, Nishikanda, Chiyoda City, Tokyo"
    },
    {
      "id": 75,
      "title": "What Happens When You Order an Izakaya Course in Fukuoka",
      "views": "조회수 확인 필요",
      "growthRate": 0.8,
      "color": "#2196F3",
      "youtubeVideoId": "2cfpzfJIM9w",
      "lat": 33.6251241,
      "lng": 130.6180016,
      "place": "福岡県",
      "placeName": "Fukuoka",
      "address": "福岡県, 日本",
      "channelId": 2,
      "locationText": "Japan, Fukuoka, Chuo Ward, Haruyoshi, 3 Chome−11−19 1F"
    },
    {
      "id": 76,
      "title": "도쿄에서 커스텀 말차 라테를 주문하면 생기는 일",
      "views": "조회수 확인 필요",
      "growthRate": 0.8,
      "color": "#2196F3",
      "youtubeVideoId": "vI_TGqaEjwA",
      "lat": 35.6768601,
      "lng": 139.7638947,
      "place": "東京都",
      "placeName": "Tokyo",
      "address": "東京都, 日本",
      "channelId": 2,
      "locationText": "Tokyo, Shibuya, Kamiyamacho, 3−8 AISKビル 1階"
    },
    {
      "id": 77,
      "title": "What Happens When You Order Senbei in Kyoto",
      "views": "조회수 확인 필요",
      "growthRate": 0.8,
      "color": "#2196F3",
      "youtubeVideoId": "wdWFO8Kg1Ac",
      "lat": 35.0115754,
      "lng": 135.7681441,
      "place": "京都市",
      "placeName": "Kyoto",
      "address": "京都市, 京都府, 日本",
      "channelId": 2,
      "locationText": "3-56 Susukinobabacho, Sagatenryuji, Ukyo Ward, Kyoto, Japan"
    },
    {
      "id": 78,
      "title": "What Happens When You Order Miso Udon in Tokyo",
      "views": "조회수 확인 필요",
      "growthRate": 0.8,
      "color": "#2196F3",
      "youtubeVideoId": "0iG0wIx8LRI",
      "lat": 35.6768601,
      "lng": 139.7638947,
      "place": "東京都",
      "placeName": "Tokyo",
      "address": "東京都, 日本",
      "channelId": 2,
      "locationText": "1F, 3 Chome−52−3 Saniharajuku, Sendagaya, Shibuya City, Tokyo"
    },
    {
      "id": 79,
      "title": "What Happens When You Order Omelet Rice in Yokohama",
      "views": "조회수 확인 필요",
      "growthRate": 0.8,
      "color": "#2196F3",
      "youtubeVideoId": "Vj7P5m1X3oE",
      "lat": 35.4503381,
      "lng": 139.6343802,
      "place": "横浜市",
      "placeName": "Yokohama",
      "address": "横浜市, 神奈川県, 231-0017, 日本",
      "channelId": 2,
      "locationText": "Japan, Kanagawa, Yokohama, Naka Ward, Shinko, 1 Chome−1−2 横浜赤レンガ倉庫2号館 1F"
    },
    {
      "id": 80,
      "title": "What Happens When You Order 85-Year-Old Eel Rice Bowl in Osaka",
      "views": "조회수 확인 필요",
      "growthRate": 0.8,
      "color": "#2196F3",
      "youtubeVideoId": "CGLSbH_Y48s",
      "lat": 34.6669142,
      "lng": 135.5073708,
      "place": "日本橋一丁目",
      "placeName": "Japan, Osaka, Chuo Ward, Nipponbashi, 2-11-21",
      "address": "日本橋一丁目, 中央区, 大阪市, 大阪府, 日本",
      "channelId": 2,
      "locationText": "Osaka, Chuo Ward, Nipponbashi, 2-11-21"
    },
    {
      "id": 81,
      "title": "What Happened When I Ordered a Pudding That Looked Good in Tokyo",
      "views": "조회수 확인 필요",
      "growthRate": 0.8,
      "color": "#2196F3",
      "youtubeVideoId": "vx0WTqxo9Z4",
      "lat": 35.6768601,
      "lng": 139.7638947,
      "place": "東京都",
      "placeName": "Tokyo",
      "address": "東京都, 日本",
      "channelId": 2,
      "locationText": "3 Chome−1−15 Chatouju 1F, Kagurazaka, Shinjuku City, Tokyo"
    },
    {
      "id": 82,
      "title": "What Happens When You Order Delicious-Looking Udon in Tokyo",
      "views": "조회수 확인 필요",
      "growthRate": 0.8,
      "color": "#2196F3",
      "youtubeVideoId": "6TbFXp-3fgc",
      "lat": 35.6768601,
      "lng": 139.7638947,
      "place": "東京都",
      "placeName": "Tokyo",
      "address": "東京都, 日本",
      "channelId": 2,
      "locationText": "5 Chome−23−9 Molfō 1F, Sendagaya, Shibuya City, Tokyo"
    },
    {
      "id": 83,
      "title": "What Happens When You Order a Crème Brûlée Sandwich in Tokyo",
      "views": "조회수 확인 필요",
      "growthRate": 0.8,
      "color": "#2196F3",
      "youtubeVideoId": "BARPiquR0Qw",
      "lat": 35.6739926,
      "lng": 139.7110976,
      "place": "神宮前二丁目",
      "placeName": "2 Chome−27, Jingumae, Shibuya, Tokyo, Japan",
      "address": "神宮前二丁目, 神宮前, 渋谷区, 東京都, 150-0001, 日本",
      "channelId": 2,
      "locationText": "2 Chome−27, Jingumae, Shibuya, Tokyo, Japan"
    },
    {
      "id": 84,
      "title": "강남 한복판에서 단돈 3600원에 이걸 다!?",
      "views": "조회수 확인 필요",
      "growthRate": 0.8,
      "color": "#4CAF50",
      "youtubeVideoId": "-Z7QcrXtjbg",
      "lat": 37.5177,
      "lng": 127.0473,
      "place": "강남구",
      "placeName": "서울 강남구",
      "address": "강남구, 서울특별시, 대한민국",
      "locationText": "서울 강남구 강남대로94길 18",
      "channelId": 3
    },
    {
      "id": 85,
      "title": "대왕연어초밥 한입에 가능??",
      "views": "조회수 확인 필요",
      "growthRate": 0.8,
      "color": "#4CAF50",
      "youtubeVideoId": "7aFynWb6J_E",
      "lat": 37.2662775,
      "lng": 127.0004098,
      "place": "수원",
      "placeName": "수원",
      "address": "수원, 924, 덕영대로, 매산로1가, 팔달구, 수원시, 16622, 대한민국",
      "locationText": null,
      "channelId": 3
    },
    {
      "id": 86,
      "title": "부평시장 줄서서 먹는 크레페 맛집!?",
      "views": "조회수 확인 필요",
      "growthRate": 0.8,
      "color": "#4CAF50",
      "youtubeVideoId": "Tq3BvtWk2aI",
      "lat": 37.5070221,
      "lng": 126.7220068,
      "place": "부평구",
      "placeName": "인천 부평구",
      "address": "부평구, 인천광역시, 대한민국",
      "locationText": "인천 부평구 부흥로334번길 65",
      "channelId": 3
    },
    {
      "id": 87,
      "title": "미쳐버린 물가 단돈 7500원에 제육 돈까스 떡볶이 무한리필!?",
      "views": "조회수 확인 필요",
      "growthRate": 0.8,
      "color": "#4CAF50",
      "youtubeVideoId": "hyeT83NWyv8",
      "lat": 37.4636,
      "lng": 126.6502,
      "place": "미추홀구",
      "placeName": "인천 미추홀구",
      "address": "미추홀구, 인천광역시, 대한민국",
      "locationText": "인천 미추홀구 경인남길30번길 61",
      "channelId": 3
    },
    {
      "id": 88,
      "title": "서울 한복판 초 가성비 술집 안주가격 1000원부터 시작",
      "views": "조회수 확인 필요",
      "growthRate": 0.8,
      "color": "#4CAF50",
      "youtubeVideoId": "oXeWLOO8E6g",
      "lat": 37.5262,
      "lng": 126.8959,
      "place": "영등포구",
      "placeName": "서울 영등포구",
      "address": "영등포구, 서울특별시, 대한민국",
      "locationText": "서울 영등포구 양평로 126",
      "channelId": 3
    },
    {
      "id": 89,
      "title": "이렇게 쫀딕한 쌀떡볶이 첨먹어봄 ㅠ",
      "views": "조회수 확인 필요",
      "growthRate": 0.8,
      "color": "#4CAF50",
      "youtubeVideoId": "_rmc5KNykCM",
      "lat": 37.5635,
      "lng": 127.0365,
      "place": "성동구",
      "placeName": "서울 성동구",
      "address": "성동구, 서울특별시, 대한민국",
      "locationText": "서울 성동구 왕십리로4가길 3 지하1층",
      "channelId": 3
    },
    {
      "id": 90,
      "title": "이건 좀 신박한데? 뷔페 뽕뽑는 꿀팁!!",
      "views": "조회수 확인 필요",
      "growthRate": 0.8,
      "color": "#4CAF50",
      "youtubeVideoId": "KQYvxkZx-jc",
      "lat": 37.4565,
      "lng": 126.8954,
      "place": "금천구",
      "placeName": "서울 금천구",
      "address": "금천구, 서울특별시, 대한민국",
      "locationText": "서울 금천구 시흥대로 10",
      "channelId": 3
    },
    {
      "id": 91,
      "title": "광장시장 바가지 논란 가래떡 3개 들어간 떡볶이 6천원!?",
      "views": "조회수 확인 필요",
      "growthRate": 0.8,
      "color": "#4CAF50",
      "youtubeVideoId": "7OIbW_tg5A4",
      "lat": 37.5806949,
      "lng": 126.9827989,
      "place": "종로구",
      "placeName": "서울특별시 종로구",
      "address": "종로구, 서울특별시, 대한민국",
      "locationText": "서울특별시 종로구 종로32길 2",
      "channelId": 3
    },
    {
      "id": 92,
      "title": "역대급 가성비맛집 27첩반찬에 보쌈까지 12000원!?",
      "views": "조회수 확인 필요",
      "growthRate": 0.8,
      "color": "#4CAF50",
      "youtubeVideoId": "-vIHBk78wPo",
      "lat": 37.5741982,
      "lng": 127.0395092,
      "place": "동대문구",
      "placeName": "서울 동대문구",
      "address": "동대문구, 서울특별시, 대한민국",
      "locationText": "서울 동대문구 한빛로 28 1층",
      "channelId": 3
    },
    {
      "id": 93,
      "title": "이건 좀 너무한데;;",
      "views": "조회수 확인 필요",
      "growthRate": 0.8,
      "color": "#4CAF50",
      "youtubeVideoId": "pk3D9ThcpZ0",
      "lat": 37.5635,
      "lng": 127.0365,
      "place": "성동구",
      "placeName": "서울 성동구",
      "address": "성동구, 서울특별시, 대한민국",
      "locationText": "서울 성동구 뚝섬로 427-15 2층",
      "channelId": 3
    },
    {
      "id": 94,
      "title": "라멘덕후가 가게 차리면 생기는일?",
      "views": "조회수 확인 필요",
      "growthRate": 0.8,
      "color": "#4CAF50",
      "youtubeVideoId": "zojHm11VU6s",
      "lat": 37.5362696,
      "lng": 127.0879515,
      "place": "광진구",
      "placeName": "서울 광진구",
      "address": "광진구, 서울특별시, 대한민국",
      "locationText": "서울 광진구 면목로 22 1층",
      "channelId": 3
    },
    {
      "id": 95,
      "title": "무침만두 하나로 줄세우는 집?",
      "views": "조회수 확인 필요",
      "growthRate": 0.8,
      "color": "#4CAF50",
      "youtubeVideoId": "fGFgLvZ2mpY",
      "lat": 37.5120999,
      "lng": 126.9395,
      "place": "동작구",
      "placeName": "서울 동작구",
      "address": "동작구, 서울특별시, 대한민국",
      "locationText": "서울 동작구 동작대로27다길 29 2층",
      "channelId": 3
    },
    {
      "id": 96,
      "title": "추억의 컵볶이 단돈 1000원?!",
      "views": "조회수 확인 필요",
      "growthRate": 0.8,
      "color": "#4CAF50",
      "youtubeVideoId": "bA98vDTinTY",
      "lat": 37.5635,
      "lng": 127.0365,
      "place": "성동구",
      "placeName": "서울 성동구",
      "address": "성동구, 서울특별시, 대한민국",
      "locationText": "서울 성동구 왕십리로24길 27",
      "channelId": 3
    },
    {
      "id": 97,
      "title": "잠실에서 피자가 1달러!?",
      "views": "조회수 확인 필요",
      "growthRate": 0.8,
      "color": "#4CAF50",
      "youtubeVideoId": "3u-dBB4eT0M",
      "lat": 37.5132169,
      "lng": 127.1001365,
      "place": "잠실",
      "placeName": "디트로이트 1달러 피자",
      "address": "서울특별시 송파구 올림픽로 265 지하1층 216-128호",
      "locationText": "서울 송파구 올림픽로 265 지하1층 216-128호 (잠실역 1번 출구에서 153m)",
      "channelId": 3
    },
    {
      "id": 98,
      "title": "문래에 이런 야장이 있었어!?",
      "views": "조회수 확인 필요",
      "growthRate": 0.8,
      "color": "#4CAF50",
      "youtubeVideoId": "Gidm0SIS1Xc",
      "lat": 37.5262,
      "lng": 126.8959,
      "place": "영등포구",
      "placeName": "서울 영등포구",
      "address": "영등포구, 서울특별시, 대한민국",
      "locationText": null,
      "channelId": 3
    },
    {
      "id": 99,
      "title": "올해 빙수스타트는 여기!! 달달한 벌집꿀올라간 수박빙수",
      "views": "조회수 확인 필요",
      "growthRate": 0.8,
      "color": "#4CAF50",
      "youtubeVideoId": "cbyKRxy4ORI",
      "lat": 37.5635,
      "lng": 127.0365,
      "place": "성동구",
      "placeName": "서울 성동구",
      "address": "성동구, 서울특별시, 대한민국",
      "locationText": "서울 성동구 서울숲2길 8-8 2층",
      "channelId": 3
    },
    {
      "id": 100,
      "title": "와... 지금까지 먹은 라멘 중 1등..!",
      "views": "조회수 확인 필요",
      "growthRate": 0.8,
      "color": "#4CAF50",
      "youtubeVideoId": "UwK7hhUJSMA",
      "lat": 37.5636559,
      "lng": 126.9975097,
      "place": "중구",
      "placeName": "서울 중구",
      "address": "중구, 서울특별시, 대한민국",
      "locationText": "서울 중구 을지로 157",
      "channelId": 3
    },
    {
      "id": 101,
      "title": "아니 강남에 이런곳이 있었어!?",
      "views": "조회수 확인 필요",
      "growthRate": 0.8,
      "color": "#4CAF50",
      "youtubeVideoId": "xpncwhktTws",
      "lat": 37.4835,
      "lng": 127.0322,
      "place": "서초구",
      "placeName": "서울 서초구",
      "address": "서초구, 서울특별시, 대한민국",
      "locationText": "서울 서초구 서초대로73길 9 2층",
      "channelId": 3
    },
    {
      "id": 102,
      "title": "초대형 픽사전시회 성수동에 떳다!!",
      "views": "조회수 확인 필요",
      "growthRate": 0.8,
      "color": "#4CAF50",
      "youtubeVideoId": "dzMro-FGc2E",
      "lat": 37.5635,
      "lng": 127.0365,
      "place": "성동구",
      "placeName": "서울 성동구",
      "address": "성동구, 서울특별시, 대한민국",
      "locationText": "서울 성동구 고산자로 71",
      "channelId": 3
    },
    {
      "id": 103,
      "title": "2025 상반기 최고의 카페 모음집",
      "views": "727만",
      "growthRate": 0.9,
      "color": "#FF9800",
      "youtubeVideoId": "wol3RAbMPn4",
      "channelId": 4,
      "locations": [
        {
          "lat": 37.5649847,
          "lng": 126.9241878,
          "place": "레이어드",
          "placeName": "카페 레이어드 연남점",
          "address": "레이어드, 161-4, 성미산로, 연남동, 마포구, 서울특별시, 03980, 대한민국",
          "locationText": "서울 마포구 성미산로 161-4"
        },
        {
          "lat": 37.5626596,
          "lng": 126.9226107,
          "place": "연남동",
          "placeName": "테일러 커피 연남",
          "address": "연남동, 마포구, 서울특별시, 대한민국",
          "locationText": "서울 마포구 연남동"
        },
        {
          "lat": 37.5418247,
          "lng": 127.0564591,
          "place": "대림창고",
          "placeName": "대림창고",
          "address": "대림창고, 78, 성수이로, 성수동2가, 성수2가1동, 성동구, 서울특별시, 04776, 대한민국",
          "locationText": "서울 성동구 성수이로 78"
        },
        {
          "lat": 37.541247,
          "lng": 127.0542669,
          "place": "성수이로7길",
          "placeName": "블루보틀 성수",
          "address": "성수이로7길, 성수동2가, 성수2가1동, 성동구, 서울특별시, 04781, 대한민국",
          "locationText": "서울 성동구 성수이로7길 39"
        },
        {
          "lat": 37.5446705,
          "lng": 127.0516954,
          "place": "연무장3길",
          "placeName": "로우키 성수",
          "address": "연무장3길, 성수2가3동, 성동구, 서울특별시, 04793, 대한민국",
          "locationText": "서울 성동구 연무장3길 6"
        },
        {
          "lat": 37.5230095,
          "lng": 127.026945,
          "place": "논현로159길",
          "placeName": "마일스톤 커피 가로수길",
          "address": "논현로159길, 가로수길, 신사동, 강남구, 서울특별시, 06032, 대한민국",
          "locationText": "서울 강남구 논현로159길 49"
        },
        {
          "lat": 37.5125275,
          "lng": 127.0588489,
          "place": "르사이공 코엑스몰점",
          "placeName": "% 아라비카 강남",
          "address": "르사이공 코엑스몰점, 513, 영동대로, 삼성동, 삼성1동, 강남구, 서울특별시, 06164, 대한민국",
          "locationText": "서울 강남구 영동대로 513"
        },
        {
          "lat": 37.5477846,
          "lng": 126.9095636,
          "place": "합정동",
          "placeName": "덕희커피 합정",
          "address": "합정동, 마포구, 서울특별시, 대한민국",
          "locationText": "서울 마포구 합정동"
        },
        {
          "lat": 37.5477846,
          "lng": 126.9095636,
          "place": "합정동",
          "placeName": "카페레터 합정",
          "address": "합정동, 마포구, 서울특별시, 대한민국",
          "locationText": "서울 마포구 합정동"
        }
      ]
    },
    {
      "id": 104,
      "title": "인왕산뷰가 매력적인 카페 서촌 대충유원지☕️",
      "views": "81249",
      "growthRate": 0.8,
      "color": "#4CAF50",
      "youtubeVideoId": "OWnLiuJU8Ks",
      "lat": 37.5778,
      "lng": 126.9666,
      "place": "서촌",
      "placeName": "대충유원지",
      "address": "서울특별시 종로구 필운대로 46 4층",
      "locationText": "서울 종로구 필운대로 46 4층",
      "channelId": 3
    },
    {
      "id": 134,
      "title": "미친 치즈 폭탄? 모짜렐라 콘치즈 불핫도그 / Mozzarella Corn Cheese Hot Dog",
      "views": "24439",
      "growthRate": 0.8,
      "color": "#FF9800",
      "youtubeVideoId": "kmy7L3nOZHc",
      "lat": 37.6607134,
      "lng": 126.7663837,
      "place": "라페스타",
      "placeName": "라페스타",
      "address": "라페스타",
      "locationText": "https://maps.app.goo.gl/jVxq1EUubjYcqsKj6",
      "channelId": 1007,
      "locations": [
        {
          "lat": 37.6607134,
          "lng": 126.7663837,
          "placeName": "라페스타",
          "address": "라페스타",
          "locationText": "라페스타"
        }
      ]
    },
    {
      "id": 135,
      "title": "손이 멈추지 않는?! 딸기 블루베리 철판아이스크림 / Strawberry Blueberry Ice Cream",
      "views": "조회수 확인 필요",
      "growthRate": 0.8,
      "color": "#FF9800",
      "youtubeVideoId": "ofB_xpZeCHI",
      "lat": 37.5135081,
      "lng": 126.9430621,
      "placeName": "노량진 컵밥거리",
      "address": "노량진 컵밥거리",
      "locationText": "https://maps.app.goo.gl/SwUQ9ssHXr1Mq2rW9",
      "channelId": 1007,
      "locations": [
        {
          "lat": 37.5135081,
          "lng": 126.9430621,
          "placeName": "노량진 컵밥거리",
          "address": "노량진 컵밥거리",
          "locationText": "노량진 컵밥거리"
        }
      ]
    },
    {
      "id": 136,
      "title": "치즈 안 넣었는데 왜 치즈맛 나지? 비법 소스로 대박난 꾸덕 떡볶이 / Cheese-flavored tteokbokki",
      "views": "조회수 확인 필요",
      "growthRate": 0.8,
      "color": "#FF9800",
      "youtubeVideoId": "fmcnHz50dyM",
      "lat": 37.4374143,
      "lng": 127.138522,
      "placeName": "수진분식",
      "address": "수진분식",
      "locationText": "https://maps.app.goo.gl/EXsKoDbSNxmDyfzT9",
      "channelId": 1007,
      "locations": [
        {
          "lat": 37.4374143,
          "lng": 127.138522,
          "placeName": "수진분식",
          "address": "수진분식",
          "locationText": "수진분식"
        }
      ]
    },
    {
      "id": 137,
      "title": "\"이 맛 때문에 못 끊는다\" 햄 치즈 에그 토스트 / his Taste Is Impossible to Quit… Classic Ham Cheese Egg Toast",
      "views": "조회수 확인 필요",
      "growthRate": 0.8,
      "color": "#FF9800",
      "youtubeVideoId": "6k0ijcsj0Pg",
      "lat": 37.4826731,
      "lng": 126.9706355,
      "placeName": "석봉토스트",
      "address": "석봉토스트",
      "locationText": "https://maps.app.goo.gl/8Sna92ZhBrw18Ggx7",
      "channelId": 1007,
      "locations": [
        {
          "lat": 37.4826731,
          "lng": 126.9706355,
          "placeName": "석봉토스트",
          "address": "석봉토스트",
          "locationText": "석봉토스트"
        }
      ]
    },
    {
      "id": 138,
      "title": "사장님 남는 거 맞아요? 미친 양의 순대집 / Sundae",
      "views": "조회수 확인 필요",
      "growthRate": 0.8,
      "color": "#FF9800",
      "youtubeVideoId": "bA4d04hFkP0",
      "lat": 37.5713483,
      "lng": 127.0379437,
      "placeName": "종필엄마족발",
      "address": "종필엄마족발",
      "locationText": "https://maps.app.goo.gl/HaZfvTAGKgMDcDoo8",
      "channelId": 1007,
      "locations": [
        {
          "lat": 37.5713483,
          "lng": 127.0379437,
          "placeName": "종필엄마족발",
          "address": "종필엄마족발",
          "locationText": "종필엄마족발"
        }
      ]
    },
    {
      "id": 139,
      "title": "가족이 똘똘 뭉쳐 만든? 시장 야채고로케 / Vegetable croquette",
      "views": "조회수 확인 필요",
      "growthRate": 0.8,
      "color": "#FF9800",
      "youtubeVideoId": "6UYfgTwUaYc",
      "lat": 38.2034095,
      "lng": 128.5138667,
      "placeName": "코끼리만두분식",
      "address": "코끼리만두분식",
      "locationText": "https://maps.app.goo.gl/z5TZxgUALfiqoZSQ7",
      "channelId": 1007,
      "locations": [
        {
          "lat": 38.2034095,
          "lng": 128.5138667,
          "placeName": "코끼리만두분식",
          "address": "코끼리만두분식",
          "locationText": "코끼리만두분식"
        }
      ]
    },
    {
      "id": 140,
      "title": "외국인들이 극찬한? 길거리 회오리감자 / Foreigners Can’t Stop Praising This Spiral Potato",
      "views": "조회수 확인 필요",
      "growthRate": 0.8,
      "color": "#FF9800",
      "youtubeVideoId": "Pcs0j3C8VZc",
      "lat": 37.5615514,
      "lng": 126.9769298,
      "placeName": "서울특별시 중구 명동",
      "address": "서울특별시 중구 명동",
      "locationText": "https://maps.app.goo.gl/noihEJPG2HuvVCnE8",
      "channelId": 1007,
      "locations": [
        {
          "lat": 37.5615514,
          "lng": 126.9769298,
          "placeName": "서울특별시 중구 명동",
          "address": "서울특별시 중구 명동",
          "locationText": "서울특별시 중구 명동"
        }
      ]
    },
    {
      "id": 141,
      "title": "인천 토박이만 안다는? 중국집 해산물 볶음밥 / Mixed Seafood Fried Rice",
      "views": "조회수 확인 필요",
      "growthRate": 0.8,
      "color": "#FF9800",
      "youtubeVideoId": "DdKSbDXs8_g",
      "lat": 37.7399728,
      "lng": 126.4878156,
      "placeName": "금문도",
      "address": "금문도",
      "locationText": "https://maps.app.goo.gl/WRvqEGLau99toveN9",
      "channelId": 1007,
      "locations": [
        {
          "lat": 37.7399728,
          "lng": 126.4878156,
          "placeName": "금문도",
          "address": "금문도",
          "locationText": "금문도"
        }
      ]
    },
    {
      "id": 142,
      "title": "전화 주문 폭주? 예약 없이 먹기 힘든 짜장면 / Jjajangmyeon with sweet potato fries",
      "views": "조회수 확인 필요",
      "growthRate": 0.8,
      "color": "#FF9800",
      "youtubeVideoId": "bZhJ77XnfVI",
      "lat": 37.7399728,
      "lng": 126.4878156,
      "placeName": "금문도",
      "address": "금문도",
      "locationText": "https://maps.app.goo.gl/1FsgWoYDi1n8QGCp7",
      "channelId": 1007,
      "locations": [
        {
          "lat": 37.7399728,
          "lng": 126.4878156,
          "placeName": "금문도",
          "address": "금문도",
          "locationText": "금문도"
        }
      ]
    },
    {
      "id": 143,
      "title": "여긴 돈쭐 나야합니다! 가성비로 소문난 수제버거 / Double Bacon Cheese Burger",
      "views": "조회수 확인 필요",
      "growthRate": 0.8,
      "color": "#FF9800",
      "youtubeVideoId": "HH1zn6s7ZMY",
      "lat": 37.6150815,
      "lng": 127.0631926,
      "placeName": "석계역",
      "address": "석계역",
      "locationText": "https://maps.app.goo.gl/4RfJxfGtS8RphKE4A",
      "channelId": 1007,
      "locations": [
        {
          "lat": 37.6150815,
          "lng": 127.0631926,
          "placeName": "석계역",
          "address": "석계역",
          "locationText": "석계역"
        }
      ]
    },
    {
      "id": 144,
      "title": "전국에서도 보기 힘든 스케일? 초대형 가성비 철판 떡볶이 / Extra-large tteokbokki on an iron plate",
      "views": "조회수 확인 필요",
      "growthRate": 0.8,
      "color": "#FF9800",
      "youtubeVideoId": "db_r-aFcYgg",
      "lat": 37.5083035,
      "lng": 125.8871324,
      "placeName": "영주랜떡",
      "address": "영주랜떡",
      "locationText": "https://maps.app.goo.gl/VV8o7GvUnHEFvz459",
      "channelId": 1007,
      "locations": [
        {
          "lat": 37.5083035,
          "lng": 125.8871324,
          "placeName": "영주랜떡",
          "address": "영주랜떡",
          "locationText": "영주랜떡"
        }
      ]
    },
    {
      "id": 145,
      "title": "넋 놓고 보게 되는? 태국 길거리 과일 손질 스킬 / The Mesmerizing Fruit Cutting Skills of Thai Street Vendors",
      "views": "조회수 확인 필요",
      "growthRate": 0.8,
      "color": "#FF9800",
      "youtubeVideoId": "GbC8gFBj_a8",
      "lat": 13.7377755,
      "lng": 100.560628,
      "placeName": "방콕 도시권 방콕",
      "address": "방콕 도시권 방콕",
      "locationText": "https://maps.app.goo.gl/o435ywEpPGEugbdbA",
      "channelId": 1007,
      "locations": [
        {
          "lat": 13.7377755,
          "lng": 100.560628,
          "placeName": "방콕 도시권 방콕",
          "address": "방콕 도시권 방콕",
          "locationText": "방콕 도시권 방콕"
        }
      ]
    },
    {
      "id": 146,
      "title": "하루 200kg 완판! 겉바속촉 길거리 끝판왕 시장 치킨 / Cost-effective market chicken",
      "views": "조회수 확인 필요",
      "growthRate": 0.8,
      "color": "#FF9800",
      "youtubeVideoId": "4xOnabTR5uY",
      "lat": 37.6574936,
      "lng": 126.8354058,
      "placeName": "와우치킨",
      "address": "와우치킨",
      "locationText": "https://maps.app.goo.gl/HdCuVVHJ8mPjRqby9",
      "channelId": 1007,
      "locations": [
        {
          "lat": 37.6574936,
          "lng": 126.8354058,
          "placeName": "와우치킨",
          "address": "와우치킨",
          "locationText": "와우치킨"
        }
      ]
    },
    {
      "id": 147,
      "title": "통닭의 성지? 푸짐함과 미친 가성비 마늘통닭 / Garlic Whole Chicken",
      "views": "조회수 확인 필요",
      "growthRate": 0.8,
      "color": "#FF9800",
      "youtubeVideoId": "7i87utZYdzY",
      "lat": 37.7398925,
      "lng": 127.0478307,
      "placeName": "의정부 제일시장",
      "address": "의정부 제일시장",
      "locationText": "https://maps.app.goo.gl/3HtzNp3GDrXGLpaL7",
      "channelId": 1007,
      "locations": [
        {
          "lat": 37.7398925,
          "lng": 127.0478307,
          "placeName": "의정부 제일시장",
          "address": "의정부 제일시장",
          "locationText": "의정부 제일시장"
        }
      ]
    },
    {
      "id": 148,
      "title": "계란만 하루 100판? 놀라운 일본식 오믈렛 / Amazing Japanese Omelette",
      "views": "조회수 확인 필요",
      "growthRate": 0.8,
      "color": "#FF9800",
      "youtubeVideoId": "SWBI9MZqSrE",
      "lat": 37.5637052,
      "lng": 126.988838,
      "placeName": "을지다락",
      "address": "을지다락",
      "locationText": "https://maps.app.goo.gl/Pc8VtYUW8YuMyVWV7",
      "channelId": 1007,
      "locations": [
        {
          "lat": 37.5637052,
          "lng": 126.988838,
          "placeName": "을지다락",
          "address": "을지다락",
          "locationText": "을지다락"
        }
      ]
    },
    {
      "id": 149,
      "title": "가성비의 성지? 고시생들이 인정한 치킨 카레 떡볶이 / Chicken Curry Tteokbokki",
      "views": "조회수 확인 필요",
      "growthRate": 0.8,
      "color": "#FF9800",
      "youtubeVideoId": "cuNzsll7ts4",
      "lat": 37.5135039,
      "lng": 126.9430621,
      "placeName": "노량진 컵밥거리",
      "address": "노량진 컵밥거리",
      "locationText": null,
      "channelId": 1007,
      "locations": [
        {
          "lat": 37.5135039,
          "lng": 126.9430621,
          "placeName": "노량진 컵밥거리",
          "address": "노량진 컵밥거리",
          "locationText": "노량진 컵밥거리"
        }
      ]
    },
    {
      "id": 150,
      "title": "대기업 부럽지 않은? 줄서서 먹는 계란빵 / Egg bread",
      "views": "조회수 확인 필요",
      "growthRate": 0.8,
      "color": "#FF9800",
      "youtubeVideoId": "QlGrxKg6jk4",
      "lat": 37.5615514,
      "lng": 126.9769298,
      "placeName": "서울특별시 중구 명동",
      "address": "서울특별시 중구 명동",
      "locationText": "https://maps.app.goo.gl/6TG3je6TuLXWBZ7U7",
      "channelId": 1007,
      "locations": [
        {
          "lat": 37.5615514,
          "lng": 126.9769298,
          "placeName": "서울특별시 중구 명동",
          "address": "서울특별시 중구 명동",
          "locationText": "서울특별시 중구 명동"
        }
      ]
    },
    {
      "id": 151,
      "title": "남다른 토스트? 딱지 베이컨 오믈렛 토스트 / Bacon Omelet Toast with Crust",
      "views": "조회수 확인 필요",
      "growthRate": 0.8,
      "color": "#FF9800",
      "youtubeVideoId": "zlfGyGlinwA",
      "lat": 37.5022243,
      "lng": 127.0477462,
      "placeName": "먼스터샌드 (Munster Sand)",
      "address": "먼스터샌드 (Munster Sand)",
      "locationText": "https://maps.app.goo.gl/ZK3CVfzX4f5k1gdt6",
      "channelId": 1007,
      "locations": [
        {
          "lat": 37.5022243,
          "lng": 127.0477462,
          "placeName": "먼스터샌드 (Munster Sand)",
          "address": "먼스터샌드 (Munster Sand)",
          "locationText": "먼스터샌드 (Munster Sand)"
        }
      ]
    },
    {
      "id": 152,
      "title": "Who eats Donggeurangttaeng these days? Market tteokgalbi sells 3",
      "views": "조회수 확인 필요",
      "growthRate": 0.8,
      "color": "#FF9800",
      "youtubeVideoId": "Moaz-RLBwCQ",
      "lat": 37.5699917,
      "lng": 126.9595789,
      "placeName": "최가상회",
      "address": "최가상회",
      "locationText": "https://maps.app.goo.gl/Tjimpyx4b3CmD8gr9",
      "channelId": 1007,
      "locations": [
        {
          "lat": 37.5699917,
          "lng": 126.9595789,
          "placeName": "최가상회",
          "address": "최가상회",
          "locationText": "최가상회"
        }
      ]
    },
    {
      "id": 153,
      "title": "치킨 덕후는 미칩니다! 겉바속촉 미친 가성비 닭다리 / Crispy Outside",
      "views": "조회수 확인 필요",
      "growthRate": 0.8,
      "color": "#FF9800",
      "youtubeVideoId": "LXQzAOb4OTs",
      "lat": 37.6574936,
      "lng": 126.8354058,
      "placeName": "와우치킨",
      "address": "와우치킨",
      "locationText": "https://maps.app.goo.gl/uqLXcZtD9kpj5amb6",
      "channelId": 1007,
      "locations": [
        {
          "lat": 37.6574936,
          "lng": 126.8354058,
          "placeName": "와우치킨",
          "address": "와우치킨",
          "locationText": "와우치킨"
        }
      ]
    },
    {
      "id": 154,
      "title": "떡볶이 하나로 시장을 평정한? 깔끔 정갈한 시장 떡볶이 분식 / Amazing Market Tteokbokki",
      "views": "조회수 확인 필요",
      "growthRate": 0.8,
      "color": "#FF9800",
      "youtubeVideoId": "iVevCtRt2fk",
      "lat": 35.1017677,
      "lng": 128.8730269,
      "placeName": "먹고갈래싸갈래",
      "address": "먹고갈래싸갈래",
      "locationText": "https://maps.app.goo.gl/9wfZxv6ysVWuiFsM9",
      "channelId": 1007,
      "locations": [
        {
          "lat": 35.1017677,
          "lng": 128.8730269,
          "placeName": "먹고갈래싸갈래",
          "address": "먹고갈래싸갈래",
          "locationText": "먹고갈래싸갈래"
        }
      ]
    },
    {
      "id": 155,
      "title": "놀라운 손기술! 달인의 오레오 철판아이스크림 / Amazing Skills! Oreo Rolled Ice Cream Master",
      "views": "조회수 확인 필요",
      "growthRate": 0.8,
      "color": "#FF9800",
      "youtubeVideoId": "pMnZYgrK-ag",
      "lat": 37.5135039,
      "lng": 126.9430621,
      "placeName": "노량진 컵밥거리",
      "address": "노량진 컵밥거리",
      "locationText": "https://maps.app.goo.gl/BPtDSnpu1sXm3HQp9",
      "channelId": 1007,
      "locations": [
        {
          "lat": 37.5135039,
          "lng": 126.9430621,
          "placeName": "노량진 컵밥거리",
          "address": "노량진 컵밥거리",
          "locationText": "노량진 컵밥거리"
        }
      ]
    },
    {
      "id": 156,
      "title": "한번 흔들면 바로 얼음! 신기한 환타 슬러시 / Instant Ice! Shake It and Fanta Turns Into Slush",
      "views": "조회수 확인 필요",
      "growthRate": 0.8,
      "color": "#FF9800",
      "youtubeVideoId": "X-ndw1hnTCU",
      "lat": 13.7403286,
      "lng": 100.5073778,
      "placeName": "Chinatown Bangkok (Yaowarat)",
      "address": "Chinatown Bangkok (Yaowarat)",
      "locationText": "https://maps.app.goo.gl/dTdi1YxzUZBRyxiA9",
      "channelId": 1007,
      "locations": [
        {
          "lat": 13.7403286,
          "lng": 100.5073778,
          "placeName": "Chinatown Bangkok (Yaowarat)",
          "address": "Chinatown Bangkok (Yaowarat)",
          "locationText": "Chinatown Bangkok (Yaowarat)"
        }
      ]
    },
    {
      "id": 157,
      "title": "여긴 잊혀지면 안됩니다! 가성비 수제패티 베이컨 치즈버거 / Thick Bacon Cheeseburger Made Fresh",
      "views": "조회수 확인 필요",
      "growthRate": 0.8,
      "color": "#FF9800",
      "youtubeVideoId": "dkXOIyqHx9g",
      "lat": 37.6553122,
      "lng": 127.1685169,
      "placeName": "햄버거&토스트",
      "address": "햄버거&토스트",
      "locationText": "https://maps.app.goo.gl/tdg9i54W7vRUbFi97 (hk햄버거&토스트)",
      "channelId": 1007,
      "locations": [
        {
          "lat": 37.6553122,
          "lng": 127.1685169,
          "placeName": "햄버거&토스트",
          "address": "햄버거&토스트",
          "locationText": "햄버거&토스트"
        }
      ]
    },
    {
      "id": 158,
      "title": "추운 겨울에도 든든합니다! 오일장 햄 치즈 에그 토스트 / Ham Cheese Egg Toast",
      "views": "조회수 확인 필요",
      "growthRate": 0.8,
      "color": "#FF9800",
      "youtubeVideoId": "ofAmcJ7XtOg",
      "lat": 37.6529943,
      "lng": 127.3037851,
      "placeName": "마석 민속5일장",
      "address": "마석 민속5일장",
      "locationText": "https://maps.app.goo.gl/1ianBWWW9MB5Ng1h8",
      "channelId": 1007,
      "locations": [
        {
          "lat": 37.6529943,
          "lng": 127.3037851,
          "placeName": "마석 민속5일장",
          "address": "마석 민속5일장",
          "locationText": "마석 민속5일장"
        }
      ]
    },
    {
      "id": 159,
      "title": "프랜차이즈 보고 있나? 하루 30판씩 팔리는 떡볶이 / Tteokbokki on an amazing scale",
      "views": "조회수 확인 필요",
      "growthRate": 0.8,
      "color": "#FF9800",
      "youtubeVideoId": "lzvsDosmGYU",
      "lat": 37.6091841,
      "lng": 127.0430111,
      "placeName": "오빠생각",
      "address": "오빠생각",
      "locationText": "https://maps.app.goo.gl/cp8Hd1p1iAD72Xwt7",
      "channelId": 1007,
      "locations": [
        {
          "lat": 37.6091841,
          "lng": 127.0430111,
          "placeName": "오빠생각",
          "address": "오빠생각",
          "locationText": "오빠생각"
        }
      ]
    },
    {
      "id": 160,
      "title": "확실히 다르긴 하네요? 딱지 햄 치즈 오믈렛 토스트 / Korean style Ham and Cheese Omelet Toast",
      "views": "조회수 확인 필요",
      "growthRate": 0.8,
      "color": "#FF9800",
      "youtubeVideoId": "0nxUAiw70ys",
      "lat": 37.5022243,
      "lng": 127.0477462,
      "placeName": "먼스터샌드 (Munster Sand)",
      "address": "먼스터샌드 (Munster Sand)",
      "locationText": "https://maps.app.goo.gl/CQSGHG9hjVtFZ91YA",
      "channelId": 1007,
      "locations": [
        {
          "lat": 37.5022243,
          "lng": 127.0477462,
          "placeName": "먼스터샌드 (Munster Sand)",
          "address": "먼스터샌드 (Munster Sand)",
          "locationText": "먼스터샌드 (Munster Sand)"
        }
      ]
    },
    {
      "id": 161,
      "title": "\"일단 우리집 근처에 없음\" 미친 가성비 수제버거 / Beef Patty Bacon Cheese Egg Burger",
      "views": "조회수 확인 필요",
      "growthRate": 0.8,
      "color": "#FF9800",
      "youtubeVideoId": "bNTqarqktnI",
      "lat": 37.615145,
      "lng": 127.0618025,
      "placeName": "달달 토스트&버거",
      "address": "달달 토스트&버거",
      "locationText": "https://maps.app.goo.gl/HAZ7Z1VJyzwUnCLD8",
      "channelId": 1007,
      "locations": [
        {
          "lat": 37.615145,
          "lng": 127.0618025,
          "placeName": "달달 토스트&버거",
          "address": "달달 토스트&버거",
          "locationText": "달달 토스트&버거"
        }
      ]
    },
    {
      "id": 162,
      "title": "흔치 않습니다! 고물가 시대 가성비로 소문난 가마솥 통닭 / Deep-fried chicken in a cauldron in clean oil",
      "views": "조회수 확인 필요",
      "growthRate": 0.8,
      "color": "#FF9800",
      "youtubeVideoId": "u589nAFCB_g",
      "lat": 36.809852,
      "lng": 127.7918551,
      "placeName": "괴산전통시장",
      "address": "괴산전통시장",
      "locationText": "https://maps.app.goo.gl/eBMwrUW5QreQhWov9",
      "channelId": 1007,
      "locations": [
        {
          "lat": 36.809852,
          "lng": 127.7918551,
          "placeName": "괴산전통시장",
          "address": "괴산전통시장",
          "locationText": "괴산전통시장"
        }
      ]
    },
    {
      "id": 163,
      "title": "대충 끓여도 맛있네? 할머니 불닭볶음면 / Spicy Buldak Bokkeum Myeon made by Grandma",
      "views": "조회수 확인 필요",
      "growthRate": 0.8,
      "color": "#FF9800",
      "youtubeVideoId": "XH5dR72oo8M",
      "lat": 37.5700398,
      "lng": 126.9970287,
      "placeName": "광장시장",
      "address": "광장시장",
      "locationText": "https://maps.app.goo.gl/iwpn2uT18pwCPSBH8",
      "channelId": 1007,
      "locations": [
        {
          "lat": 37.5700398,
          "lng": 126.9970287,
          "placeName": "광장시장",
          "address": "광장시장",
          "locationText": "광장시장"
        }
      ]
    },
    {
      "id": 164,
      "title": "스케일부터 남다른? 태국 차이나타운 구운 밤 / Bangkok Chinatown Chestnuts",
      "views": "조회수 확인 필요",
      "growthRate": 0.8,
      "color": "#FF9800",
      "youtubeVideoId": "_3hIQKg4Jss",
      "lat": 13.7371929,
      "lng": 100.5129813,
      "placeName": "차이나타운게이트",
      "address": "차이나타운게이트",
      "locationText": "https://maps.app.goo.gl/zZhB2TTJA2jWLgVHA",
      "channelId": 1007,
      "locations": [
        {
          "lat": 13.7371929,
          "lng": 100.5129813,
          "placeName": "차이나타운게이트",
          "address": "차이나타운게이트",
          "locationText": "차이나타운게이트"
        }
      ]
    },
    {
      "id": 165,
      "title": "말도 많고 탈도 많았던? 초스피드 철판 계란말이 / Super Fast Rolled Omelet",
      "views": "조회수 확인 필요",
      "growthRate": 0.8,
      "color": "#FF9800",
      "youtubeVideoId": "PD5izDwD99M",
      "lat": 37.48686,
      "lng": 125.8701069,
      "placeName": "장꼬방 묵은 김치찌개 전문",
      "address": "장꼬방 묵은 김치찌개 전문",
      "locationText": "https://maps.app.goo.gl/WS6G3dB9CRTw8qLV7",
      "channelId": 1007,
      "locations": [
        {
          "lat": 37.48686,
          "lng": 125.8701069,
          "placeName": "장꼬방 묵은 김치찌개 전문",
          "address": "장꼬방 묵은 김치찌개 전문",
          "locationText": "장꼬방 묵은 김치찌개 전문"
        }
      ]
    },
    {
      "id": 166,
      "title": "없어서 못 먹는다는? 태국의 놀라운 코브라 요리비법 / Amazing Thai Cobra Cooking Secrets",
      "views": "조회수 확인 필요",
      "growthRate": 0.8,
      "color": "#FF9800",
      "youtubeVideoId": "bPvua98X_wk",
      "lat": 13.7243801,
      "lng": 100.3027872,
      "placeName": "태국 방콕 도시권 방콕",
      "address": "태국 방콕 도시권 방콕",
      "locationText": "https://maps.app.goo.gl/NPcUhJAKMiNuUdFb7",
      "channelId": 1007,
      "locations": [
        {
          "lat": 13.7243801,
          "lng": 100.3027872,
          "placeName": "태국 방콕 도시권 방콕",
          "address": "태국 방콕 도시권 방콕",
          "locationText": "태국 방콕 도시권 방콕"
        }
      ]
    },
    {
      "id": 167,
      "title": "\"전국에 얼마 안 남았네요\" 딸기 오레오 철판아이스크림 / Strawberry Oreo Ice Cream",
      "views": "조회수 확인 필요",
      "growthRate": 0.8,
      "color": "#FF9800",
      "youtubeVideoId": "FkHFdtb7QzI",
      "lat": 37.5135039,
      "lng": 126.9430621,
      "placeName": "노량진 컵밥거리",
      "address": "노량진 컵밥거리",
      "locationText": "https://maps.app.goo.gl/Eq8BVyNESyJK3Ss78",
      "channelId": 1007,
      "locations": [
        {
          "lat": 37.5135039,
          "lng": 126.9430621,
          "placeName": "노량진 컵밥거리",
          "address": "노량진 컵밥거리",
          "locationText": "노량진 컵밥거리"
        }
      ]
    },
    {
      "id": 168,
      "title": "이 조합은 반칙이지? 더블패티 베이컨 치즈 에그버거 / Double Patty Bacon Cheese Egg Burger",
      "views": "조회수 확인 필요",
      "growthRate": 0.8,
      "color": "#FF9800",
      "youtubeVideoId": "vFiNJLyXfq8",
      "lat": 37.615145,
      "lng": 127.0617972,
      "placeName": "달달 토스트&버거",
      "address": "달달 토스트&버거",
      "locationText": "https://maps.app.goo.gl/btDygdeVJcXM9oHS8",
      "channelId": 1007,
      "locations": [
        {
          "lat": 37.615145,
          "lng": 127.0617972,
          "placeName": "달달 토스트&버거",
          "address": "달달 토스트&버거",
          "locationText": "달달 토스트&버거"
        }
      ]
    },
    {
      "id": 169,
      "title": "전국에서 소문난 가성비? 떡갈비 치즈 에그 토스트 / The Famous Budget-Friendly Tteokgalbi Cheese Egg Toast",
      "views": "조회수 확인 필요",
      "growthRate": 0.8,
      "color": "#FF9800",
      "youtubeVideoId": "kFGnl2B8-K8",
      "lat": 37.2918131,
      "lng": 127.0722296,
      "placeName": "대한민국",
      "address": "대한민국",
      "locationText": "https://maps.app.goo.gl/DmZNe3mfHjLRCH1W7",
      "channelId": 1007,
      "locations": [
        {
          "lat": 37.2918131,
          "lng": 127.0722296,
          "placeName": "대한민국",
          "address": "대한민국",
          "locationText": "대한민국"
        }
      ]
    },
    {
      "id": 170,
      "title": "태국은 뭔가 다르긴 하네요? 누텔라 바나나 계란실 크레페 / Nutella Banana Foi Thong Crepe",
      "views": "조회수 확인 필요",
      "growthRate": 0.8,
      "color": "#FF9800",
      "youtubeVideoId": "jmJeOXp7tCc",
      "lat": 13.724381,
      "lng": 100.3034741,
      "placeName": "태국 방콕 도시권 방콕",
      "address": "태국 방콕 도시권 방콕",
      "locationText": "https://maps.app.goo.gl/S2AU81h9jT6n6aKe6",
      "channelId": 1007,
      "locations": [
        {
          "lat": 13.724381,
          "lng": 100.3034741,
          "placeName": "태국 방콕 도시권 방콕",
          "address": "태국 방콕 도시권 방콕",
          "locationText": "태국 방콕 도시권 방콕"
        }
      ]
    },
    {
      "id": 171,
      "title": "한국식 토스트",
      "views": "조회수 확인 필요",
      "growthRate": 0.8,
      "color": "#FF9800",
      "youtubeVideoId": "PAdRSsJkVeU",
      "lat": 37.5022243,
      "lng": 127.0477462,
      "placeName": "먼스터샌드 (Munster Sand)",
      "address": "먼스터샌드 (Munster Sand)",
      "locationText": "https://maps.app.goo.gl/gPYgv9fXegNicBvN9",
      "channelId": 1007,
      "locations": [
        {
          "lat": 37.5022243,
          "lng": 127.0477462,
          "placeName": "먼스터샌드 (Munster Sand)",
          "address": "먼스터샌드 (Munster Sand)",
          "locationText": "먼스터샌드 (Munster Sand)"
        }
      ]
    },
    {
      "id": 172,
      "title": "한국인 입 맛을 사로 잡은? 방콕 야시장 팟타이 / Koreans Fell in Love with Pad Thai",
      "views": "조회수 확인 필요",
      "growthRate": 0.8,
      "color": "#FF9800",
      "youtubeVideoId": "JO0xO2_-trM",
      "lat": 13.8202271,
      "lng": 100.5617253,
      "placeName": "쩟 페어 댄 니라밋",
      "address": "쩟 페어 댄 니라밋",
      "locationText": "https://maps.app.goo.gl/UPvMukre3G4W743i9",
      "channelId": 1007,
      "locations": [
        {
          "lat": 13.8202271,
          "lng": 100.5617253,
          "placeName": "쩟 페어 댄 니라밋",
          "address": "쩟 페어 댄 니라밋",
          "locationText": "쩟 페어 댄 니라밋"
        }
      ]
    },
    {
      "id": 173,
      "title": "\"The Same Place for 40 Years\": A Must-Try Iced Cocoa in Bangkok / The Cocoa Grandma Who's Been He...",
      "views": "조회수 확인 필요",
      "growthRate": 0.8,
      "color": "#FF9800",
      "youtubeVideoId": "PkcQjSg15nE",
      "lat": 13.7126288,
      "lng": 100.5799116,
      "placeName": "Cocoa Amma",
      "address": "Cocoa Amma",
      "locationText": "https://maps.app.goo.gl/RPWjqayYpC9NwuXeA",
      "channelId": 1007,
      "locations": [
        {
          "lat": 13.7126288,
          "lng": 100.5799116,
          "placeName": "Cocoa Amma",
          "address": "Cocoa Amma",
          "locationText": "Cocoa Amma"
        }
      ]
    },
    {
      "id": 174,
      "title": "이건 꼭 먹어봐야 함! 햄 치즈 에그 롤 토스트 / Ham Cheese and Egg Roll Toast",
      "views": "조회수 확인 필요",
      "growthRate": 0.8,
      "color": "#FF9800",
      "youtubeVideoId": "zkrYSp0s4EQ",
      "lat": 37.4826689,
      "lng": 126.9706355,
      "placeName": "석봉토스트",
      "address": "석봉토스트",
      "locationText": "https://maps.app.goo.gl/1YJnVmzPp6HdEUcj8",
      "channelId": 1007,
      "locations": [
        {
          "lat": 37.4826689,
          "lng": 126.9706355,
          "placeName": "석봉토스트",
          "address": "석봉토스트",
          "locationText": "석봉토스트"
        }
      ]
    },
    {
      "id": 175,
      "title": "여자들에게 호불호 없는? 말차 모찌 수플레 팬케이크 / Matcha Mochi Souffle Pancake",
      "views": "조회수 확인 필요",
      "growthRate": 0.8,
      "color": "#FF9800",
      "youtubeVideoId": "WoyxpmnBoxI",
      "lat": 37.5453046,
      "lng": 126.9834998,
      "placeName": "카페 토터스(Tortoise)",
      "address": "카페 토터스(Tortoise)",
      "locationText": "https://maps.app.goo.gl/kxqLNvu6JypNDypM6",
      "channelId": 1007,
      "locations": [
        {
          "lat": 37.5453046,
          "lng": 126.9834998,
          "placeName": "카페 토터스(Tortoise)",
          "address": "카페 토터스(Tortoise)",
          "locationText": "카페 토터스(Tortoise)"
        }
      ]
    },
    {
      "id": 176,
      "title": "소화불량 해결됩니다! 방콕 오리지널 석류 착즙주스 / Original pomegranate juice",
      "views": "조회수 확인 필요",
      "growthRate": 0.8,
      "color": "#FF9800",
      "youtubeVideoId": "1p7g-RpOWOs",
      "lat": 13.7245449,
      "lng": 100.4683067,
      "placeName": "태국 방콕 도시권 방콕",
      "address": "태국 방콕 도시권 방콕",
      "locationText": "https://maps.app.goo.gl/xjbvPkETJ59nQY8T7",
      "channelId": 1007,
      "locations": [
        {
          "lat": 13.7245449,
          "lng": 100.4683067,
          "placeName": "태국 방콕 도시권 방콕",
          "address": "태국 방콕 도시권 방콕",
          "locationText": "태국 방콕 도시권 방콕"
        }
      ]
    },
    {
      "id": 177,
      "title": "가성비로 소문이 자자한? 시장 닭날개 튀김 / Deep-fried Chicken Wings",
      "views": "조회수 확인 필요",
      "growthRate": 0.8,
      "color": "#FF9800",
      "youtubeVideoId": "osPB0c5o1gw",
      "lat": 37.6542,
      "lng": 126.8387,
      "place": "고양시 덕양구",
      "placeName": "와우치킨",
      "address": "경기도 고양시 덕양구 성사동 507번지 1층 와우치킨",
      "locationText": "https://maps.app.goo.gl/6L3CFfX27vLAiPKC7?g_st=ipc",
      "channelId": 1007
    },
    {
      "id": 178,
      "title": "떡볶이 하나로 시장 먹었다? 스케일이 남다른 미친 분식집 / Amazing Tteokbokki",
      "views": "조회수 확인 필요",
      "growthRate": 0.8,
      "color": "#FF9800",
      "youtubeVideoId": "UiLS9UpMW5I",
      "lat": 35.8723543,
      "lng": 128.7007212,
      "placeName": "반야월종합시장",
      "address": "반야월종합시장",
      "locationText": "https://maps.app.goo.gl/52LdE5n87UbFhxod6",
      "channelId": 1007,
      "locations": [
        {
          "lat": 35.8723543,
          "lng": 128.7007212,
          "placeName": "반야월종합시장",
          "address": "반야월종합시장",
          "locationText": "반야월종합시장"
        }
      ]
    },
    {
      "id": 179,
      "title": "태국은 이런 곳이구나? 거리에서 만난 과일 자르기 달인! / Crazy Skills! Thai Street Fruit Chopping Master",
      "views": "조회수 확인 필요",
      "growthRate": 0.8,
      "color": "#FF9800",
      "youtubeVideoId": "skU6ETDIjpw",
      "lat": 13.7377755,
      "lng": 100.560628,
      "placeName": "방콕 도시권 방콕",
      "address": "방콕 도시권 방콕",
      "locationText": "https://maps.app.goo.gl/o435ywEpPGEugbdbA",
      "channelId": 1007,
      "locations": [
        {
          "lat": 13.7377755,
          "lng": 100.560628,
          "placeName": "방콕 도시권 방콕",
          "address": "방콕 도시권 방콕",
          "locationText": "방콕 도시권 방콕"
        }
      ]
    },
    {
      "id": 180,
      "title": "Hongdubyeong",
      "views": "조회수 확인 필요",
      "growthRate": 0.8,
      "color": "#9C27B0",
      "youtubeVideoId": "AoS8FhJvplg",
      "lat": 37.4772557,
      "lng": 126.6191854,
      "place": "차이나타운로",
      "placeName": "48 Chinatown-ro, Jung-gu, Incheon",
      "address": "차이나타운로, 인천차이나타운, 북성동, 중구, 인천광역시, 22312, South Korea",
      "locationText": "48 Chinatown-ro, Jung-gu, Incheon",
      "channelId": 1008
    },
    {
      "id": 181,
      "title": "Spam Omelette Toast with Eggs Folded in a Crust",
      "views": "조회수 확인 필요",
      "growthRate": 0.8,
      "color": "#9C27B0",
      "youtubeVideoId": "RDM4GhGaEIg",
      "lat": 37.5074391,
      "lng": 127.0463889,
      "place": "선릉로",
      "placeName": "418 Seolleung-ro, Gangnam-gu, Seoul",
      "address": "선릉로, 역삼1동, 강남구, 서울특별시, 06145, South Korea",
      "locationText": "418 Seolleung-ro, Gangnam-gu, Seoul",
      "channelId": 1008
    },
    {
      "id": 182,
      "title": "Grilled ribs and quail over a charcoal grill",
      "views": "조회수 확인 필요",
      "growthRate": 0.8,
      "color": "#9C27B0",
      "youtubeVideoId": "ImAooqND7lQ",
      "lat": 37.8911515,
      "lng": 127.2017863,
      "place": "호국로",
      "placeName": "1553 Hoguk-ro, Gunnae-myeon, Pocheon-si, Gyeonggi-do",
      "address": "호국로, 용정리, 포천시, 경기도, 11147, 대한민국",
      "locationText": "1553 Hoguk-ro, Gunnae-myeon, Pocheon-si, Gyeonggi-do",
      "channelId": 1008
    },
    {
      "id": 183,
      "title": "3",
      "views": "조회수 확인 필요",
      "growthRate": 0.8,
      "color": "#9C27B0",
      "youtubeVideoId": "N5jbe-MMEOQ",
      "lat": 37.431858,
      "lng": 126.9025763,
      "placeName": "ro, Manan-gu, Anyang-si, Gyeonggi-do, South Korea",
      "address": "연현로, 만안구, 안양시, 경기도, 13906, 대한민국",
      "locationText": "119 Jangnae-ro, Manan-gu, Anyang-si, Gyeonggi-do, 1st floor, Unit 8",
      "channelId": 1008,
      "locations": [
        {
          "lat": 37.431858,
          "lng": 126.9025763,
          "placeName": "ro, Manan-gu, Anyang-si, Gyeonggi-do, South Korea",
          "address": "연현로, 만안구, 안양시, 경기도, 13906, 대한민국",
          "locationText": "ro, Manan-gu, Anyang-si, Gyeonggi-do, South Korea"
        }
      ]
    },
    {
      "id": 184,
      "title": "2",
      "views": "조회수 확인 필요",
      "growthRate": 0.8,
      "color": "#9C27B0",
      "youtubeVideoId": "gZUuNGRurjQ",
      "lat": 37.8911515,
      "lng": 127.2017863,
      "place": "호국로",
      "placeName": "1553 Hoguk-ro, Gunnae-myeon, Pocheon-si, Gyeonggi-do",
      "address": "호국로, 용정리, 포천시, 경기도, 11147, 대한민국",
      "locationText": "1553 Hoguk-ro, Gunnae-myeon, Pocheon-si, Gyeonggi-do",
      "channelId": 1008
    },
    {
      "id": 185,
      "title": "2",
      "views": "조회수 확인 필요",
      "growthRate": 0.8,
      "color": "#9C27B0",
      "youtubeVideoId": "rwov4P50V_c",
      "lat": 37.5670099,
      "lng": 127.0196403,
      "place": "퇴계로85길",
      "placeName": "36 Toegye-ro 85-gil, Jung-gu, Seoul",
      "address": "퇴계로85길, 4통, 황학동, 중구, 서울특별시, 04576, 대한민국",
      "locationText": "36 Toegye-ro 85-gil, Jung-gu, Seoul",
      "channelId": 1008
    },
    {
      "id": 186,
      "title": "1",
      "views": "조회수 확인 필요",
      "growthRate": 0.8,
      "color": "#9C27B0",
      "youtubeVideoId": "mPh-eyBpkok",
      "lat": 37.5818161,
      "lng": 127.0428482,
      "place": "왕산로35길",
      "placeName": "17 Wangsan-ro 35-gil, Dongdaemun-gu, Seoul",
      "address": "왕산로35길, 제기동, 청량리동, 동대문구, 서울특별시, 02573, South Korea",
      "locationText": "17 Wangsan-ro 35-gil, Dongdaemun-gu, Seoul",
      "channelId": 1008
    },
    {
      "id": 187,
      "title": "2",
      "views": "조회수 확인 필요",
      "growthRate": 0.8,
      "color": "#9C27B0",
      "youtubeVideoId": "ycaOL84LKr0",
      "lat": 36.0931,
      "lng": -115.175,
      "place": "라스베가스",
      "placeName": "Gordon Ramsay Burger",
      "address": "3667 S Las Vegas Blvd, Planet Hollywood, Las Vegas, NV 89109, USA",
      "locationText": "3667 S Las Vegas Blvd, Planet Hollywood, Las Vegas, NV 89109, USA",
      "channelId": 1008
    },
    {
      "id": 188,
      "title": "맷돌이 자동으로 갈아주는 6,000원 녹두전",
      "views": "19034",
      "growthRate": 0.8,
      "color": "#9C27B0",
      "youtubeVideoId": "MZGNylNkbaI",
      "lat": 37.87723,
      "lng": 127.22198,
      "place": "군내면",
      "placeName": "8 Hobyeong-ro",
      "address": "8 Hobyeong-ro, Gunnae-myeon, Pocheon-si, Gyeonggi-do",
      "locationText": "8 Hobyeong-ro, Gunnae-myeon, Pocheon-si, Gyeonggi-do (near the middle of the market)",
      "channelId": 1008
    },
    {
      "id": 189,
      "title": "A five-day hotteok shop where only those in the know can stand in line to eat",
      "views": "조회수 확인 필요",
      "growthRate": 0.8,
      "color": "#9C27B0",
      "youtubeVideoId": "lurhXfLKtdg",
      "lat": 37.87723,
      "lng": 127.22198,
      "place": "군내면",
      "placeName": "8 Hobyeong-ro",
      "address": "8 Hobyeong-ro, Gunnae-myeon, Pocheon-si, Gyeonggi-do",
      "locationText": "8 Hobyeong-ro, Gunnae-myeon, Pocheon-si, Gyeonggi-do (at the end of the market)",
      "channelId": 1008
    },
    {
      "id": 190,
      "title": "3",
      "views": "조회수 확인 필요",
      "growthRate": 0.8,
      "color": "#9C27B0",
      "youtubeVideoId": "aAvziyc1t7s",
      "lat": 37.3863,
      "lng": 126.9324,
      "place": "만안구",
      "placeName": "196 Naengcheon-ro",
      "address": "196 Naengcheon-ro, Manan-gu, Anyang-si, Gyeonggi-do",
      "locationText": "196 Naengcheon-ro, Manan-gu, Anyang-si, Gyeonggi-do",
      "channelId": 1008
    },
    {
      "id": 191,
      "title": "Grandma's Toast from Changdong",
      "views": "조회수 확인 필요",
      "growthRate": 0.8,
      "color": "#9C27B0",
      "youtubeVideoId": "dHW-YiQAEZI",
      "lat": 37.6686,
      "lng": 127.0466,
      "place": "도봉구",
      "placeName": "15 Deokneung-ro 60da-gil",
      "address": "15 Deokneung-ro 60da-gil, Dobong-gu, Seoul",
      "locationText": "15 Deokneung-ro 60da-gil, Dobong-gu, Seoul",
      "channelId": 1008
    },
    {
      "id": 192,
      "title": "Namdaemun Market's Wang Mandu",
      "views": "조회수 확인 필요",
      "growthRate": 0.8,
      "color": "#9C27B0",
      "youtubeVideoId": "31SQiPKxrmo",
      "lat": 37.5636559,
      "lng": 126.9975097,
      "place": "중구",
      "placeName": "42 Namdaemun Market 4-gil",
      "address": "42 Namdaemun Market 4-gil, Jung-gu, Seoul",
      "locationText": "42 Namdaemun Market 4-gil, Jung-gu, Seoul",
      "channelId": 1008
    },
    {
      "id": 193,
      "title": "6",
      "views": "조회수 확인 필요",
      "growthRate": 0.8,
      "color": "#9C27B0",
      "youtubeVideoId": "gE2epl8vNKg",
      "lat": 37.512836,
      "lng": 126.9543823,
      "place": "노량진로",
      "placeName": "178 Noryangjin-ro",
      "address": "178 Noryangjin-ro, Dongjak-gu, Seoul",
      "locationText": "178 Noryangjin-ro, Dongjak-gu, Seoul (Cupbap Street)",
      "channelId": 1008
    },
    {
      "id": 194,
      "title": "7",
      "views": "조회수 확인 필요",
      "growthRate": 0.8,
      "color": "#9C27B0",
      "youtubeVideoId": "PklvR-62__Y",
      "lat": 33.4998289,
      "lng": 126.5313902,
      "place": "제주시",
      "placeName": "13 Gwandeok-ro 8-gil",
      "address": "13 Gwandeok-ro 8-gil, Jeju-si, Jeju",
      "locationText": "13 Gwandeok-ro 8-gil, Jeju-si, Jeju",
      "channelId": 1008
    },
    {
      "id": 195,
      "title": "Myeongdong Ham and Cheese Omelette with Buldak Bokkeum Myeon",
      "views": "조회수 확인 필요",
      "growthRate": 0.8,
      "color": "#9C27B0",
      "youtubeVideoId": "O-bAr5O9Pfs",
      "lat": 37.5608977,
      "lng": 126.9863762,
      "place": "명동",
      "placeName": "30 Myeongdong-gil",
      "address": "30 Myeongdong-gil",
      "locationText": "30 Myeongdong-gil (Myeongdong Street, in front of Myeongdong Police Station)",
      "channelId": 1008
    },
    {
      "id": 196,
      "title": "Bomb Cup Rice with over 10 toppings",
      "views": "조회수 확인 필요",
      "growthRate": 0.8,
      "color": "#9C27B0",
      "youtubeVideoId": "Wm51RVL8xAc",
      "lat": 37.5136137,
      "lng": 126.9415727,
      "place": "노량진",
      "placeName": "180 Noryangjin-ro, Dongjak-gu, Seoul, Cup Rice Street",
      "address": "180 Noryangjin-ro, Dongjak-gu, Seoul, Cup Rice Street",
      "locationText": "180 Noryangjin-ro, Dongjak-gu, Seoul, Cup Rice Street",
      "channelId": 1008
    },
    {
      "id": 197,
      "title": "How about visiting an aquarium cafe with personal fish tanks?",
      "views": "조회수 확인 필요",
      "growthRate": 0.8,
      "color": "#FF9800",
      "youtubeVideoId": "lDqT-tcF2x4",
      "lat": 36.3497007,
      "lng": 127.3849016,
      "place": "대전광역시",
      "placeName": "대전 중구 대흥로175번길 17 1층",
      "address": "대전광역시, 대한민국",
      "locationText": "대전 중구 대흥로175번길 17 1층",
      "channelId": 4
    },
    {
      "id": 198,
      "title": "A collection of delicious Osaka desserts!",
      "views": "조회수 확인 필요",
      "growthRate": 0.8,
      "color": "#FF9800",
      "youtubeVideoId": "3gi-n3BBNpI",
      "lat": 47.5023311,
      "lng": 19.0529502,
      "placeName": "Cheesecake",
      "address": "Cheesecake, 27, Arany János utca, Lipótváros, V. kerület, Budapest, Közép-Magyarország, 1051, Magyarország",
      "locationText": null,
      "channelId": 4,
      "locations": [
        {
          "lat": 47.5023311,
          "lng": 19.0529502,
          "placeName": "Cheesecake",
          "address": "Cheesecake, 27, Arany János utca, Lipótváros, V. kerület, Budapest, Közép-Magyarország, 1051, Magyarország",
          "locationText": "Cheesecake"
        },
        {
          "lat": 40.0904478,
          "lng": 113.2790348,
          "placeName": "Iced Coffee",
          "address": "Iced coffee, 迎泽南街, 振华街道, 平城区, 大同市, 山西省, 037000, 中国",
          "locationText": "Iced Coffee"
        },
        {
          "lat": 25.0490633,
          "lng": 121.4696262,
          "placeName": "Egg Sandwich",
          "address": "EGG BUN Breakfast Sandwich & Espresso, 4, 中興北街42巷, 頂崁工業區, 中興里, 三重區, 頭前, 新北市, 241, 臺灣",
          "locationText": "Egg Sandwich"
        }
      ]
    },
    {
      "id": 199,
      "title": "How about visiting a new cafe on the beach?",
      "views": "조회수 확인 필요",
      "growthRate": 0.8,
      "color": "#FF9800",
      "youtubeVideoId": "u3VxrSX8I-g",
      "lat": 37.456,
      "lng": 126.7052,
      "place": "인천광역시",
      "placeName": "인천 강화군 양도면 해안서로 590",
      "address": "인천광역시, 대한민국",
      "locationText": "인천 강화군 양도면 해안서로 590",
      "channelId": 4
    },
    {
      "id": 200,
      "title": "How about visiting a waterfall cafe in Seoul?",
      "views": "조회수 확인 필요",
      "growthRate": 0.8,
      "color": "#FF9800",
      "youtubeVideoId": "KkDB-lS36uE",
      "lat": 37.5812146,
      "lng": 126.9369633,
      "place": "카페 폭포",
      "placeName": "서울 서대문구 연희로 262-24",
      "address": "카페 폭포, 262-24, 연희로, 홍은2동, 서대문구, 서울특별시, 03653, 대한민국",
      "locationText": "서울 서대문구 연희로 262-24",
      "channelId": 4
    },
    {
      "id": 201,
      "title": "What if you order French toast in Seoul?",
      "views": "조회수 확인 필요",
      "growthRate": 0.8,
      "color": "#FF9800",
      "youtubeVideoId": "aMzsogZtx9Y",
      "lat": 37.5666791,
      "lng": 126.9782914,
      "place": "서울특별시",
      "placeName": "서울 강서구 공항대로59가길 1 1층",
      "address": "서울특별시, 대한민국",
      "locationText": "서울 강서구 공항대로59가길 1 1층",
      "channelId": 4
    },
    {
      "id": 202,
      "title": "How about going to a cafe in Dal-dong?",
      "views": "조회수 확인 필요",
      "growthRate": 0.8,
      "color": "#FF9800",
      "youtubeVideoId": "FEox3aLKlVU",
      "lat": 35.290709,
      "lng": 129.25888,
      "place": "달동횟집",
      "placeName": "달동, 부산, South Korea",
      "address": "달동횟집, 갈맷길, 일광읍, 기장군, 부산광역시, 46040, 대한민국",
      "locationText": null,
      "channelId": 4
    },
    {
      "id": 203,
      "title": "What if you went to a real cave cafe?",
      "views": "조회수 확인 필요",
      "growthRate": 0.8,
      "color": "#FF9800",
      "youtubeVideoId": "quVYONaBwd0",
      "lat": 37.5665,
      "lng": 126.978,
      "place": "서울",
      "placeName": "서울, 대한민국",
      "address": "위치 정보 없음 (서울)",
      "locationText": null,
      "channelId": 4
    },
    {
      "id": 204,
      "title": "세계 최대 수족관 카페에 가본다면?",
      "views": "조회수 확인 필요",
      "growthRate": 0.8,
      "color": "#FF9800",
      "youtubeVideoId": "Qo3gAnHQJuo",
      "lat": 37.68083,
      "lng": 126.7739124,
      "place": "현대그린공업사",
      "placeName": "경기 고양시 일산서구 일중로 9",
      "address": "현대그린공업사, 9, 일중로, 일산2동, 일산서구, 고양시, 10353, South Korea",
      "locationText": null,
      "channelId": 4
    },
    {
      "id": 205,
      "title": "What if you went to a cafe where Doctor Fish welcomed you?",
      "views": "조회수 확인 필요",
      "growthRate": 0.8,
      "color": "#FF9800",
      "youtubeVideoId": "l5KedOuZ9d4",
      "lat": 37.5665,
      "lng": 126.978,
      "place": "서울",
      "placeName": "서울, 대한민국",
      "address": "위치 정보 없음 (서울)",
      "locationText": null,
      "channelId": 4
    },
    {
      "id": 206,
      "title": "How about going to a cafe on top of a mountain?",
      "views": "조회수 확인 필요",
      "growthRate": 0.8,
      "color": "#FF9800",
      "youtubeVideoId": "8PW4K9M-DiE",
      "lat": 37.5665,
      "lng": 126.978,
      "place": "서울",
      "placeName": "서울, 대한민국",
      "address": "위치 정보 없음 (서울)",
      "locationText": null,
      "channelId": 4
    },
    {
      "id": 207,
      "title": "What if you order dorayaki in Busan?",
      "views": "조회수 확인 필요",
      "growthRate": 0.8,
      "color": "#FF9800",
      "youtubeVideoId": "gIESXDS14j8",
      "lat": 35.1799528,
      "lng": 129.0752365,
      "place": "부산광역시",
      "placeName": "부산 동구 초량로13번길 78 1층",
      "address": "부산광역시, 대한민국",
      "locationText": "부산 동구 초량로13번길 78 1층",
      "channelId": 4
    },
    {
      "id": 208,
      "title": "How about going to the Colosseum Cafe?",
      "views": "조회수 확인 필요",
      "growthRate": 0.8,
      "color": "#FF9800",
      "youtubeVideoId": "62R68X7aEOo",
      "lat": 37.5665,
      "lng": 126.978,
      "place": "서울",
      "placeName": "서울, 대한민국",
      "address": "위치 정보 없음 (서울)",
      "locationText": null,
      "channelId": 4
    },
    {
      "id": 209,
      "title": "What if you went to a large cafe where dogs roamed around?",
      "views": "조회수 확인 필요",
      "growthRate": 0.8,
      "color": "#FF9800",
      "youtubeVideoId": "SCFfujEdkHc",
      "lat": 37.5665,
      "lng": 126.978,
      "place": "서울",
      "placeName": "서울, 대한민국",
      "address": "위치 정보 없음 (서울)",
      "locationText": null,
      "channelId": 4
    },
    {
      "id": 210,
      "title": "개인 온실이 있는 카페에 가본다면?",
      "views": "조회수 확인 필요",
      "growthRate": 0.8,
      "color": "#FF9800",
      "youtubeVideoId": "R9cBayVWcVU",
      "lat": 37.6323782,
      "lng": 127.3509127,
      "place": "북한강로",
      "placeName": "경기 남양주시 화도읍 북한강로 1136",
      "address": "북한강로, 화도읍, 남양주시, 경기도, 12193, South Korea",
      "locationText": null,
      "channelId": 4
    },
    {
      "id": 211,
      "title": "What if you went to the cafe that appeared on Human Theater?",
      "views": "조회수 확인 필요",
      "growthRate": 0.8,
      "color": "#FF9800",
      "youtubeVideoId": "baPFtlwFves",
      "lat": 37.5665,
      "lng": 126.978,
      "place": "서울",
      "placeName": "서울, 대한민국",
      "address": "위치 정보 없음 (서울)",
      "locationText": null,
      "channelId": 4
    },
    {
      "id": 212,
      "title": "How about visiting a cafe built on a cliff?",
      "views": "조회수 확인 필요",
      "growthRate": 0.8,
      "color": "#FF9800",
      "youtubeVideoId": "ojQqJeud_n4",
      "lat": 37.5665,
      "lng": 126.978,
      "place": "서울",
      "placeName": "서울, 대한민국",
      "address": "위치 정보 없음 (서울)",
      "locationText": null,
      "channelId": 4
    },
    {
      "id": 213,
      "title": "Ah",
      "views": "조회수 확인 필요",
      "growthRate": 0.8,
      "color": "#FF9800",
      "youtubeVideoId": "4_5WoRigj5Y",
      "lat": 35.6762,
      "lng": 139.6503,
      "place": "도쿄",
      "placeName": "Tokyo",
      "address": "Tokyo, Japan",
      "locationText": null,
      "channelId": 4
    },
    {
      "id": 214,
      "title": "What if you ordered dessert from the birthplace of matcha?",
      "views": "조회수 확인 필요",
      "growthRate": 0.8,
      "color": "#FF9800",
      "youtubeVideoId": "IotbBZPHjQo",
      "lat": 35.6762,
      "lng": 139.6503,
      "place": "도쿄",
      "placeName": "Tokyo",
      "address": "Tokyo, Japan",
      "locationText": null,
      "channelId": 4
    },
    {
      "id": 215,
      "title": "What if you order a Dubai Bomb Cake?",
      "views": "조회수 확인 필요",
      "growthRate": 0.8,
      "color": "#FF9800",
      "youtubeVideoId": "ANFQoC9Nntg",
      "lat": 45.5687133,
      "lng": 27.9985197,
      "place": "mmm",
      "placeName": "👉 MMM /",
      "address": "mmm, Tulucești, Galați, 807327, România",
      "locationText": "인천 연수구 인천타워대로 257",
      "channelId": 4
    },
    {
      "id": 216,
      "title": "A cream pie that was truly delicious",
      "views": "조회수 확인 필요",
      "growthRate": 0.8,
      "color": "#FF9800",
      "youtubeVideoId": "feZ7e5zbzSU",
      "lat": 35.6762,
      "lng": 139.6503,
      "place": "도쿄",
      "placeName": "Tokyo",
      "address": "Tokyo, Japan",
      "locationText": null,
      "channelId": 4
    },
    {
      "id": 217,
      "title": "What if you went to a 100-year-old ice cream shop?",
      "views": "조회수 확인 필요",
      "growthRate": 0.8,
      "color": "#FF9800",
      "youtubeVideoId": "-drKjZHX9Xo",
      "lat": 33.5969401,
      "lng": 130.4024631,
      "place": "須崎町",
      "placeName": "Susakimachi, Hakata Ward",
      "address": "須崎町, 博多区, 福岡市, 福岡県, 810-0802, 日本",
      "locationText": null,
      "channelId": 4
    },
    {
      "id": 218,
      "title": "How about going to a cafe with a port opening period concept?",
      "views": "조회수 확인 필요",
      "growthRate": 0.8,
      "color": "#FF9800",
      "youtubeVideoId": "LUaT_tSuKhQ",
      "lat": 37.520691,
      "lng": 127.1038301,
      "place": "잠실나루",
      "placeName": "👉 Shinaru /",
      "address": "잠실나루, 20, 오금로, 신천동, 행정4동, 송파구, 서울특별시, 05504, South Korea",
      "locationText": "인천 중구 신포로23번길 62 1층",
      "channelId": 4
    },
    {
      "id": 219,
      "title": "What if there was a cafe that had been in existence for 45 years?",
      "views": "조회수 확인 필요",
      "growthRate": 0.8,
      "color": "#FF9800",
      "youtubeVideoId": "FhXoyxUjB6E",
      "lat": 37.4502949,
      "lng": 126.7527177,
      "place": "장자로6번길",
      "placeName": "인천 남동구 장자로6번길 112-7",
      "address": "장자로6번길, 장수동, 장수서창동, 남동구, 인천광역시, 21531, 대한민국",
      "locationText": "인천 남동구 장자로6번길 112-7",
      "channelId": 4
    },
    {
      "id": 220,
      "title": "Strawberry French Toast",
      "views": "조회수 확인 필요",
      "growthRate": 0.8,
      "color": "#FF9800",
      "youtubeVideoId": "_xnlWms8q88",
      "lat": 37.5666791,
      "lng": 126.9782914,
      "place": "서울특별시",
      "placeName": "서울 마포구 포은로8길 32 1층",
      "address": "서울특별시, 대한민국",
      "locationText": "서울 마포구 포은로8길 32 1층",
      "channelId": 4
    },
    {
      "id": 221,
      "title": "오사카에서 반숙 샌드위치를 주문한다면?",
      "views": "조회수 확인 필요",
      "growthRate": 0.8,
      "color": "#FF9800",
      "youtubeVideoId": "wXEXC73UgdU",
      "lat": 35.6762,
      "lng": 139.6503,
      "place": "도쿄",
      "placeName": "Tokyo",
      "address": "Tokyo, Japan",
      "locationText": "샐러드 JPY 1,600 (15,000원)",
      "channelId": 4
    },
    {
      "id": 222,
      "title": "What if there was a cafe themed around time?",
      "views": "조회수 확인 필요",
      "growthRate": 0.8,
      "color": "#FF9800",
      "youtubeVideoId": "fzkr01ULxwk",
      "lat": 37.5665,
      "lng": 126.978,
      "place": "서울",
      "placeName": "서울, 대한민국",
      "address": "위치 정보 없음 (서울)",
      "locationText": null,
      "channelId": 4
    },
    {
      "id": 223,
      "title": "What if you order a hard bread you've never seen before?",
      "views": "조회수 확인 필요",
      "growthRate": 0.8,
      "color": "#FF9800",
      "youtubeVideoId": "zD2SmXLtCRg",
      "lat": 35.1920979,
      "lng": 129.0996663,
      "place": "온천천로",
      "placeName": "부산 동래구 온천천로 71-1",
      "address": "온천천로, 안락1동, 동래구, 부산광역시, 47901, 대한민국",
      "locationText": "부산 동래구 온천천로 71-1",
      "channelId": 4
    },
    {
      "id": 224,
      "title": "What if you visited one of the world's top 100 cafes?",
      "views": "조회수 확인 필요",
      "growthRate": 0.8,
      "color": "#FF9800",
      "youtubeVideoId": "e_HZgBmwhlA",
      "lat": 35.1540337,
      "lng": 129.0672753,
      "place": "동성로39번길",
      "placeName": "부산 부산진구 동성로39번길 28",
      "address": "동성로39번길, 전포동, 전포1동, 부산진구, 부산광역시, 47305, 대한민국",
      "locationText": "부산 부산진구 동성로39번길 28",
      "channelId": 4
    },
    {
      "id": 225,
      "title": "What if you order dango in Seoul?",
      "views": "조회수 확인 필요",
      "growthRate": 0.8,
      "color": "#FF9800",
      "youtubeVideoId": "kX3-TgxgAiU",
      "lat": 37.5663821,
      "lng": 126.9467757,
      "place": "성산로",
      "placeName": "서울 서대문구 성산로 253-4",
      "address": "성산로, 대신동, 신촌동, 서대문구, 서울특별시, 03721, 대한민국",
      "locationText": "서울 서대문구 성산로 253-4",
      "channelId": 4
    },
    {
      "id": 226,
      "title": "이것이 진정한 생태계파괴! #shorts",
      "views": "조회수 확인 필요",
      "growthRate": 0.8,
      "color": "#00BCD4",
      "youtubeVideoId": "GyY19HKEb-U",
      "lat": 37.4829235,
      "lng": 126.7630049,
      "place": "송내동",
      "placeName": "경기 부천시 소사구 송내동 363-12",
      "address": "송내동, 소사구, 부천시, 경기도, 14728, 대한민국",
      "locationText": null,
      "channelId": 1009
    },
    {
      "id": 227,
      "title": "이것이 시장의 순기능! #shorts",
      "views": "조회수 확인 필요",
      "growthRate": 0.8,
      "color": "#00BCD4",
      "youtubeVideoId": "9FDG1gg524o",
      "lat": 37.5332411,
      "lng": 126.8356137,
      "place": "곰달래로13길",
      "placeName": "서울 양천구 곰달래로13길 31",
      "address": "곰달래로13길, 신월동, 신월1동, 양천구, 서울특별시, 07718, 대한민국",
      "locationText": "서울 양천구 곰달래로13길 31",
      "channelId": 1009
    },
    {
      "id": 228,
      "title": "어이가 없는 곳입니다.. #shorts",
      "views": "조회수 확인 필요",
      "growthRate": 0.8,
      "color": "#00BCD4",
      "youtubeVideoId": "8O7Aaejt3Fs",
      "lat": 37.7255155,
      "lng": 127.0500644,
      "place": "회룡로138번길",
      "placeName": "경기 의정부시 회룡로138번길 10",
      "address": "회룡로138번길, 우남, 호원2동, 의정부시, 경기도, 11704, 대한민국",
      "locationText": null,
      "channelId": 1009
    },
    {
      "id": 229,
      "title": "초 고퀄리티 한식뷔페! #shorts",
      "views": "조회수 확인 필요",
      "growthRate": 0.8,
      "color": "#00BCD4",
      "youtubeVideoId": "4SdAzALyCh0",
      "lat": 37.6491562,
      "lng": 127.1339112,
      "place": "별내2로",
      "placeName": "경기 남양주시 별내동 34-2",
      "address": "별내2로, 별내동, 퇴계원읍, 남양주시, 경기도, 12106, South Korea",
      "locationText": null,
      "channelId": 1009
    },
    {
      "id": 230,
      "title": "공장 창고에서 갈비 드셔보신 분? #shorts",
      "views": "조회수 확인 필요",
      "growthRate": 0.8,
      "color": "#00BCD4",
      "youtubeVideoId": "SW0Ub3cB_CA",
      "lat": 37.6979495,
      "lng": 126.8133589,
      "place": "수원문산고속도로",
      "placeName": "경기 고양시 일산동구 문봉동 17-2",
      "address": "수원문산고속도로, 문봉동, 고봉동, 일산동구, 고양시, 경기도, 10313, 대한민국",
      "locationText": "어디로 찍히는지 봐야할듯",
      "channelId": 1009
    },
    {
      "id": 231,
      "title": "인정 안 할래야 안 할 수 없음! #shorts",
      "views": "조회수 확인 필요",
      "growthRate": 0.8,
      "color": "#00BCD4",
      "youtubeVideoId": "kI6UY4Kxncw",
      "lat": 37.50312,
      "lng": 127.0014,
      "place": "반포동",
      "placeName": "서울 서초구 반포동 746-9",
      "address": "반포동, 반포2동, 서초구, 서울특별시, 06546, South Korea",
      "locationText": null,
      "channelId": 1009
    },
    {
      "id": 232,
      "title": "전국유일! 스지찜 나오는 한식뷔페! #shorts",
      "views": "조회수 확인 필요",
      "growthRate": 0.8,
      "color": "#00BCD4",
      "youtubeVideoId": "xJ_9EB7WtHs",
      "lat": 37.9165153,
      "lng": 127.2178461,
      "place": "호국로",
      "placeName": "경기 포천시 신북면 호국로 2016",
      "address": "호국로, 신북면, 포천시, 경기도, 11111, 대한민국",
      "locationText": null,
      "channelId": 1009
    },
    {
      "id": 233,
      "title": "전국유일! 투어 한식뷔페! #shorts",
      "views": "조회수 확인 필요",
      "growthRate": 0.8,
      "color": "#00BCD4",
      "youtubeVideoId": "dhHGvDgpxgM",
      "lat": 37.5010435,
      "lng": 127.6007536,
      "place": "경강로",
      "placeName": "경기 양평군 용문면 경강로 2758",
      "address": "경강로, 용문면, 양평군, 경기도, 12514, South Korea",
      "locationText": null,
      "channelId": 1009
    },
    {
      "id": 234,
      "title": "갓성비로 팔아도 사람이 안 옴..#shorts",
      "views": "조회수 확인 필요",
      "growthRate": 0.8,
      "color": "#00BCD4",
      "youtubeVideoId": "nO4zELKsI_U",
      "lat": 37.4887462,
      "lng": 126.7500087,
      "place": "부일로",
      "placeName": "경기도 부천시 원미구 부일로 460",
      "address": "부일로, 상동, 원미구, 부천시, 경기도, 14598, South Korea",
      "locationText": null,
      "channelId": 1009
    },
    {
      "id": 235,
      "title": "화병 났습니다.. #shorts",
      "views": "조회수 확인 필요",
      "growthRate": 0.8,
      "color": "#00BCD4",
      "youtubeVideoId": "ziK94Jm4BmI",
      "lat": 37.4566595,
      "lng": 126.7148145,
      "place": "용천로",
      "placeName": "인천 남동구 용천로 114",
      "address": "용천로, 구월2동, 남동구, 인천광역시, 21547, South Korea",
      "locationText": "인천 남동구 용천로 114",
      "channelId": 1009
    },
    {
      "id": 236,
      "title": "이보다 좋은 곳은 없다! #shorts",
      "views": "조회수 확인 필요",
      "growthRate": 0.8,
      "color": "#00BCD4",
      "youtubeVideoId": "89cP_Ijw1xM",
      "lat": 35.2023365,
      "lng": 126.8072148,
      "place": "하남산단6번로",
      "placeName": "광주 광산구 하남산단6번로 57",
      "address": "하남산단6번로, 오선동, 하남동, 광산구, 광주광역시, 62220, 대한민국",
      "locationText": "광주 광산구 하남산단6번로 57",
      "channelId": 1009
    },
    {
      "id": 237,
      "title": "이것이 봉사다!! #shorts",
      "views": "조회수 확인 필요",
      "growthRate": 0.8,
      "color": "#00BCD4",
      "youtubeVideoId": "S2_Nzc7DASw",
      "lat": 37.4566492,
      "lng": 126.6820998,
      "place": "경인로380번길",
      "placeName": "인천 미추홀구 경인로380번길 9",
      "address": "경인로380번길, 주안4동, 미추홀구, 인천광역시, 22148, South Korea",
      "locationText": "인천 미추홀구 경인로380번길 9",
      "channelId": 1009
    },
    {
      "id": 238,
      "title": "단언컨대 전라도 1등! #shorts",
      "views": "조회수 확인 필요",
      "growthRate": 0.8,
      "color": "#00BCD4",
      "youtubeVideoId": "E13_6SoAeyY",
      "lat": 35.8163493,
      "lng": 127.1090159,
      "place": "홍산중앙로",
      "placeName": "전북 전주시 완산구 홍산중앙로 26",
      "address": "홍산중앙로, 효자5동, 완산구, 전주시, 전북특별자치도, 54969, South Korea",
      "locationText": null,
      "channelId": 1009
    },
    {
      "id": 239,
      "title": "살다살다 이런 곳도 있네요? #shorts",
      "views": "조회수 확인 필요",
      "growthRate": 0.8,
      "color": "#00BCD4",
      "youtubeVideoId": "vZW2Xl1TmAM",
      "lat": 37.5177,
      "lng": 127.0473,
      "place": "강남구",
      "placeName": "서울 강남구 테헤란로 322 한신인터밸리24건물 지하1층",
      "address": "서울 강남구 테헤란로 322 한신인터밸리24건물 지하1층",
      "locationText": "서울 강남구 테헤란로 322",
      "channelId": 1009
    },
    {
      "id": 240,
      "title": "진짜 당장 망해도 이해가 됨.. #shorts",
      "views": "조회수 확인 필요",
      "growthRate": 0.8,
      "color": "#00BCD4",
      "youtubeVideoId": "7s-3mEptpPg",
      "lat": 37.4868971,
      "lng": 126.928177,
      "place": "신림동",
      "placeName": "서울 관악구 신림동 1524-10",
      "address": "신림동, 관악구, 서울특별시, 대한민국",
      "locationText": null,
      "channelId": 1009
    },
    {
      "id": 241,
      "title": "인정을 안 할 수가 없는 간짜장! #shorts",
      "views": "조회수 확인 필요",
      "growthRate": 0.8,
      "color": "#00BCD4",
      "youtubeVideoId": "G_MlojpSg5o",
      "lat": 37.6748772,
      "lng": 127.042872,
      "place": "도봉로169나길",
      "placeName": "서울 도봉구 도봉로169나길 47",
      "address": "도봉로169나길, 도봉동, 도봉1동, 도봉구, 서울특별시, 01307, 대한민국",
      "locationText": "서울 도봉구 도봉로169나길 47",
      "channelId": 1009
    },
    {
      "id": 242,
      "title": "반박불가! 1등 가성비! #shorts",
      "views": "조회수 확인 필요",
      "growthRate": 0.8,
      "color": "#00BCD4",
      "youtubeVideoId": "3xIySpazE10",
      "lat": 37.7084717,
      "lng": 127.1865909,
      "place": "진건오남로",
      "placeName": "경기 남양주시 오남읍 진건오남로 617",
      "address": "진건오남로, 진접읍, 남양주시, 경기도, 12067, 대한민국",
      "locationText": null,
      "channelId": 1009
    },
    {
      "id": 243,
      "title": "사장님..진짜 미치셨군요.. #shorts",
      "views": "조회수 확인 필요",
      "growthRate": 0.8,
      "color": "#00BCD4",
      "youtubeVideoId": "CtFp4yKH1yM",
      "lat": 37.4587798,
      "lng": 126.679789,
      "place": "주안동",
      "placeName": "인천 미추홀구 주안동 434-6",
      "address": "주안동, 주안1동, 미추홀구, 인천광역시, 22139, 대한민국",
      "locationText": null,
      "channelId": 1009
    },
    {
      "id": 244,
      "title": "신라호텔 갈래? 여기 갈래? #shorts",
      "views": "조회수 확인 필요",
      "growthRate": 0.8,
      "color": "#00BCD4",
      "youtubeVideoId": "UaUIOZU9cMk",
      "lat": 37.5608977,
      "lng": 126.9863762,
      "place": "명동",
      "placeName": "서울 중구 남대문로5길 15 소테츠호텔 더스프라지르 명동",
      "address": "서울 중구 남대문로5길 15 소테츠호텔 더스프라지르 명동",
      "locationText": "서울 중구 남대문로5길 15",
      "channelId": 1009
    },
    {
      "id": 245,
      "title": "무조건 본전 뽑습니다! #shorts",
      "views": "조회수 확인 필요",
      "growthRate": 0.8,
      "color": "#00BCD4",
      "youtubeVideoId": "ZUzq_ZQ9JLs",
      "lat": 37.5094286,
      "lng": 126.6449556,
      "place": "북항로32번길",
      "placeName": "인천 서구 북항로32번길 20",
      "address": "북항로32번길, 신현원창동, 서구, 인천광역시, 22769, 대한민국",
      "locationText": "인천 서구 북항로32번길 20",
      "channelId": 1009
    },
    {
      "id": 246,
      "title": "전국 최저가 미친 만두 2000원! #shorts",
      "views": "조회수 확인 필요",
      "growthRate": 0.8,
      "color": "#00BCD4",
      "youtubeVideoId": "IBsi14qlMHw",
      "lat": 37.628995,
      "lng": 127.0257543,
      "place": "미아동",
      "placeName": "서울특별시 강북구 미아동 324-97",
      "address": "미아동, 강북구, 서울특별시, 대한민국",
      "locationText": null,
      "channelId": 1009
    },
    {
      "id": 247,
      "title": "솔직히 다들 너무 비싸서 화딱지 남.. #shorts",
      "views": "조회수 확인 필요",
      "growthRate": 0.8,
      "color": "#00BCD4",
      "youtubeVideoId": "ro1UMUFoASY",
      "lat": 37.4868971,
      "lng": 126.928177,
      "place": "신림동",
      "placeName": "서울 관악구 신림동 1654-9",
      "address": "신림동, 관악구, 서울특별시, 대한민국",
      "locationText": null,
      "channelId": 1009
    },
    {
      "id": 248,
      "title": "월세와 인건비가 안 나가면 벌어지는 일! #shorts",
      "views": "조회수 확인 필요",
      "growthRate": 0.8,
      "color": "#00BCD4",
      "youtubeVideoId": "CElmpxoblVg",
      "lat": 37.4911451,
      "lng": 126.92492,
      "place": "BJ냉면",
      "placeName": "서울특별시 관악구 보라매로3길 29",
      "address": "BJ냉면, 29, 보라매로3길, 보라매타운, 보라매동, 관악구, 서울특별시, 08708, 대한민국",
      "locationText": "서울특별시 관악구 보라매로3길 29",
      "channelId": 1009
    },
    {
      "id": 249,
      "title": "다 퍼준다는 말은 여기에 쓰는 겁니다! #shorts",
      "views": "조회수 확인 필요",
      "growthRate": 0.8,
      "color": "#00BCD4",
      "youtubeVideoId": "HeJCS6iEnOM",
      "lat": 35.8920401,
      "lng": 128.5878923,
      "place": "침산동",
      "placeName": "대구 북구 침산동 1009-15",
      "address": "침산동, 침산3동, 북구, 대구광역시, 41550, 대한민국",
      "locationText": null,
      "channelId": 1009
    }
  ]
}